     4.01           OBSERVATION DATA    M                   RINEX VERSION / TYPE
GnssLogger          samsung 12          20251128 230714 UTC PGM / RUN BY / DATE
Google GnssLogger                                           MARKER NAME
Unknown                                                     MARKER NUMBER
Unknown             Unknown                                 OBSERVER / AGENCY
Unknown             GnssLogger          v3.1.1.1            REC # / TYPE / VERS
Unknown             Unknown                                 ANT # / TYPE
        0.0000        0.0000        0.0000                  ANTENNA: DELTA H/E/N
G    3 C1C D1C S1C                                          SYS / # / OBS TYPES
R    3 C1C D1C S1C                                          SYS / # / OBS TYPES
E    3 C1C D1C S1C                                          SYS / # / OBS TYPES
  2025    11    28    23    07   14.0000000     GPS         TIME OF FIRST OBS
 8 R05  1 R06 -4 R07  5 R15  0 R16 -1 R17  4 R18 -3 R24  2  GLONASS SLOT / FRQ #
samsung SM-G781U1 (Android 12) HW Year: 2019 HW Model:      COMMENT
qcom,SM8250,                                                COMMENT
                                                            END OF HEADER
> 2025 11 28 23 07 14.4429896  0 24                      
G01  23805620.64928       944.90028        50.40028
G02  24705338.28728     -1379.75028        52.90028
G07  23004004.09727     -2540.95027        46.00027
G13  20794846.66427      -257.20027        44.30027
G14  20467699.94327      -685.65027        43.40027
G15  22395066.85527       690.75027        44.00027
G17  20560010.53826      1144.90026        37.70026
G19  21644329.58027      2766.50027        45.10027
G22  20713879.61726      -247.30026        40.30026
G30  21105621.71927     -1675.70027        45.00027
R06  21391579.95525      -604.40025        35.00025
R18  21472815.91626      3606.00026        41.40026
R16  20473462.55428      1206.95028        50.10028
R15  20763036.58628     -1411.35028        48.60028
R05  22479682.67727     -4107.85027        42.40027
R24  23500220.27328     -3018.05028        50.00028
R17  20744429.66728       468.60028        51.40028
E07  23956470.51826      -800.92626        39.40026
E08  25863959.09126     -2919.07026        40.30026
E27  25615912.31027      1561.22227        45.10027
E29  26203120.29425      1880.95025        33.80025
E30  23609245.19726      -315.24026        38.20026
E34  27352256.56428      2472.95928        48.90028
E36  27512632.33828       808.86128        52.60028
> 2025 11 28 23 07 15.4429896  0 24                      
G01  23805439.57428       965.99228        51.00028
G02  24705598.20729     -1358.30329        53.50029
G07  23004471.47325     -2516.15025        35.10025
G13  20794867.05026      -233.96926        38.10026
G14  20467821.95927      -661.62127        43.50027
G15  22394934.64727       711.45627        46.40027
G17  20559778.79927      1168.19127        42.90027
G19  21643804.64328      2786.06728        48.60028
G22  20713920.68827      -224.41927        45.80027
G30  21105954.48926     -1651.20626        40.30026
R06  21391694.47526      -584.75026        40.00026
R18  21472139.88427      3627.52327        43.40027
R16  20473228.41628      1229.54928        53.20028
R15  20763297.70528     -1388.19128        51.30028
R05  22480442.05127     -4087.15127        44.90027
R24  23500782.98428     -2996.66628        50.20028
R17  20744338.53029       489.93329        53.50029
E07  23956621.61326      -779.08126        40.40026
E08  25864507.71125     -2898.60025        32.60025
E27  25615611.91828      1583.51128        49.10028
E29  26202755.14726      1902.06026        41.30026
E30  23609304.55627      -292.85127        44.80027
E34  27351782.29228      2495.37828        49.80028
E36  27512474.04828       831.03028        53.30028
> 2025 11 28 23 07 16.4429896  0 23                      
G01  23805257.30028       950.30128        51.30028
G02  24705855.42928     -1374.09928        53.30028
G07  23004953.53925     -2531.55025        34.70025
G13  20794925.81026      -252.20026        38.70026
G14  20467951.16927      -677.16527        45.00027
G15  22394804.83628       693.60028        47.80028
G17  20559559.35027      1149.40027        41.80027
G19  21643277.30827      2770.27527        46.80027
G22  20713964.75827      -240.05327        45.90027
G30  21106273.76826     -1668.00026        40.10026
R06  21391801.20126      -601.91326        39.70026
R18  21471463.85227      3611.33027        44.00027
R16  20473004.77128      1212.55028        52.20028
R15  20763552.52928     -1405.65028        51.70028
R05  22481207.72127     -4102.55327        44.10027
R24  23501353.18928     -3012.64828        50.90028
R17  20744249.19229       473.34229        54.30029
E07  23956769.71126      -795.90526        38.80026
E27  25615312.12628      1567.01528        49.00028
E29  26202396.29627      1885.28327        41.90027
E30  23609363.61527      -309.44227        45.60027
E34  27351310.41928      2478.95928        48.20028
E36  27512322.05328       814.29828        52.60028
> 2025 11 28 23 07 17.4429896  0 24                      
G01  23805078.92428       912.00028        51.90028
G02  24706125.24328     -1411.85028        53.20028
G07  23005445.79825     -2569.40025        32.80025
G13  20794981.57127      -289.55027        44.20027
G14  20468089.97327      -715.20027        46.30027
G15  22394680.72227       656.40027        47.10027
G17  20559343.20027      1113.70027        42.20027
G19  21642753.87027      2732.60027        46.50027
G22  20714013.92427      -277.30027        47.40027
G30  21106593.34726     -1705.60026        41.40026
R06  21391914.82326      -639.90026        39.20026
R18  21470791.11827      3573.30027        42.70027
R16  20472781.12628      1175.70028        49.90028
R15  20763819.04428     -1442.50028        50.00028
R05  22481988.68027     -4141.25027        46.50027
R24  23501919.49728     -3050.95028        51.20028
R17  20744158.35529       434.85029        53.50029
E07  23956922.00526      -832.40726        39.40026
E08  25865622.93924     -2947.35024        29.30024
E27  25615015.33128      1530.92728        49.40028
E29  26202039.54326      1848.94026        38.70026
E30  23609428.37027      -345.50527        47.20027
E34  27350842.74328      2442.85528        48.80028
E36  27512167.96028       777.88628        52.10028
> 2025 11 28 23 07 18.4429896  0 24                      
G01  23804903.84528       907.32928        50.50028
G02  24706389.95928     -1417.05328        52.90028
G07  23005934.76025     -2574.35425        34.40025
G13  20795039.43127      -293.30827        43.00027
G14  20468222.78127      -719.10727        46.00027
G15  22394559.30627       651.70027        47.20027
G17  20559130.04826      1109.12826        41.30026
G19  21642238.22728      2728.28528        48.50028
G22  20714065.78827      -281.96427        46.80027
G30  21106919.22127     -1710.25727        42.80027
R06  21392041.03526      -645.31326        39.40026
R18  21470115.38627      3568.66427        43.40027
R16  20472559.57928      1170.37328        51.00028
R15  20764085.26028     -1447.61028        51.50028
R05  22482757.64827     -4145.96127        45.70027
R24  23502485.80528     -3056.50828        50.90028
R17  20744077.71128       429.44328        52.20028
E07  23957086.59126      -836.07826        38.10026
E08  25866185.35024     -2952.70024        28.70024
E27  25614726.33128      1527.47628        48.70028
E29  26201688.48626      1845.37126        40.80026
E30  23609489.52827      -349.00827        46.80027
E34  27350378.36427      2439.42627        47.40027
E36  27512022.56029       774.07829        53.50029
> 2025 11 28 23 07 19.4429896  0 23                      
G01  23804733.26328       916.95028        50.30028
G02  24706658.27428     -1407.35028        52.70028
G07  23006424.32126     -2566.15026        39.70026
G13  20795092.49427      -285.35027        44.30027
G14  20468357.98827      -709.35027        46.40027
G15  22394432.49427       660.85027        47.40027
G17  20558917.49526      1117.65026        41.40026
G19  21641717.78828      2738.00028        49.00028
G22  20714123.34827      -272.20027        47.40027
G30  21107238.50027     -1699.90027        42.60027
R06  21392175.04326      -636.30026        39.20026
R18  21469455.54227      3578.30027        44.50027
R16  20472340.43128      1180.05028        51.60028
R15  20764359.57028     -1437.80028        52.80028
R05  22483529.91327     -4136.60027        46.30027
R24  23503060.50728     -3046.50028        51.50028
R17  20743998.86628       438.20028        52.20028
E07  23957245.78126      -827.90626        37.70026
E27  25614434.93328      1536.01028        49.00028
E29  26201333.83126      1853.52826        40.90026
E30  23609557.88027      -340.43227        46.80027
E34  27349911.88728      2447.95328        48.60028
E36  27511872.36429       782.39829        54.20029
> 2025 11 28 23 07 20.4429896  0 23                      
G01  23804558.78428       929.28228        50.30028
G02  24706923.59028     -1395.02728        52.80028
G07  23006911.48426     -2552.60826        39.90026
G13  20795144.65827      -272.37727        44.50027
G14  20468493.79427      -697.32727        46.40027
G15  22394304.48327       672.65827        47.40027
G17  20558710.63826      1130.15726        41.40026
G19  21641194.35028      2749.90528        49.70028
G22  20714176.11127      -260.16227        47.40027
G30  21107553.88227     -1688.74627        41.80027
R06  21392285.66626      -624.52026        39.00026
R18  21468787.90527      3590.10027        44.50027
R16  20472122.78228      1192.67928        51.90028
R15  20764628.18428     -1425.30228        53.10028
R05  22484303.97727     -4122.98027        45.70027
R24  23503633.71028     -3034.28128        51.70028
R17  20743913.42528       450.40828        52.30028
E07  23957405.87026      -815.92526        38.60026
E27  25614139.03828      1548.31428        49.50028
E29  26200981.57526      1865.75726        40.50026
E30  23609621.73627      -328.20727        46.80027
E34  27349446.90928      2460.25228        48.40028
E36  27511721.26929       794.34929        54.20029
> 2025 11 28 23 07 21.4429896  0 24                      
G01  23804377.41028       949.24828        50.20028
G02  24707189.80628     -1375.12228        52.80028
G07  23007398.94626     -2532.21326        39.80026
G13  20795199.22027      -252.48127        43.10027
G14  20468626.90227      -676.78127        46.00027
G15  22394172.27428       692.53928        47.70028
G17  20558499.88427      1150.33327        42.20027
G19  21640664.31728      2770.26528        49.20028
G22  20714220.78128      -239.70528        47.50028
G30  21107861.16927     -1668.49327        41.80027
R06  21392392.69226      -604.30326        39.10026
R18  21468110.07427      3610.99127        45.10027
R16  20471897.03828      1213.54828        52.00028
R15  20764898.29729     -1404.33529        53.50029
R05  22485061.85327     -4102.17127        46.20027
R24  23504198.51928     -3014.01928        51.80028
R17  20743828.58328       470.70728        52.10028
E07  23957555.76626      -795.55426        39.70026
E08  25867856.99225     -2911.95025        35.30025
E27  25613841.94328      1568.95528        49.90028
E29  26200626.62126      1886.18926        40.80026
E30  23609681.69527      -307.50627        46.40027
E34  27348974.43628      2480.98828        48.60028
E36  27511569.27429       814.79429        54.40029
> 2025 11 28 23 07 22.4429896  0 24                      
G01  23804198.43428       932.78128        49.40028
G02  24707450.92528     -1391.69728        52.80028
G07  23007879.81326     -2548.52326        40.00026
G13  20795251.38427      -268.83527        44.00027
G14  20468758.81027      -692.73327        45.70027
G15  22394049.06027       676.03127        46.90027
G17  20558282.53427      1135.15027        41.80027
G19  21640145.67628      2754.04828        48.90028
G22  20714266.94928      -255.68028        48.10028
G30  21108183.74626     -1683.99026        41.10026
R06  21392493.42226      -621.14626        37.70026
R18  21467427.44627      3595.11027        44.70027
R16  20471670.99428      1197.43128        51.20028
R15  20765160.91528     -1420.56228        53.20028
R05  22485831.42027     -4118.55027        46.60027
R24  23504760.33028     -3030.84728        51.60028
R17  20743739.54528       453.70828        52.30028
E07  23957714.95626      -811.74726        37.50026
E08  25868414.00725     -2925.40025        33.10025
E27  25613547.54728      1553.16228        49.30028
E29  26200270.76726      1870.31026        39.00026
E30  23609742.85227      -323.36827        46.70027
E34  27348504.06228      2465.30328        47.70028
E36  27511416.68029       798.80129        53.80029
> 2025 11 28 23 07 23.4429896  0 24                      
G01  23804023.35528       906.72228        50.00028
G02  24707717.44028     -1417.66728        52.60028
G07  23008367.87626     -2574.42026        40.30026
G13  20795302.94927      -295.91027        45.00027
G14  20468888.92027      -718.81127        46.20027
G15  22393920.44927       649.70527        46.90027
G17  20558065.78427      1107.00027        41.90027
G19  21639621.33928      2727.95328        49.40028
G22  20714316.11528      -281.73228        48.10028
G30  21108512.31827     -1711.25027        41.50027
R06  21392632.52626      -648.18726        38.10026
R18  21466766.10427      3568.25027        45.10027
R16  20471442.55228      1171.06728        51.20028
R15  20765433.42728     -1446.92828        53.40028
R05  22486602.48627     -4144.83727        46.70027
R24  23505326.93828     -3057.37528        51.60028
R17  20743653.80428       426.59028        52.20028
E07  23957874.74626      -839.05026        37.10026
E08  25868975.51825     -2952.15025        30.80025
E27  25613255.84928      1527.15328        49.70028
E29  26199917.61226      1844.05626        38.80026
E30  23609807.60827      -349.35727        46.80027
E34  27348040.28328      2439.27128        47.70028
E36  27511266.78429       772.44729        54.00029
> 2025 11 28 23 07 24.4429896  0 23                      
G01  23803850.97428       903.04428        50.00028
G02  24707991.15128     -1421.34228        52.70028
G07  23008856.23726     -2577.97226        39.30026
G13  20795361.10827      -297.35027        45.10027
G14  20469026.22527      -721.76127        45.80027
G15  22393795.43527       646.39927        46.90027
G17  20557857.72827      1105.60027        42.40027
G19  21639100.30028      2724.90428        49.20028
G22  20714370.97727      -284.67627        47.40027
G30  21108849.88527     -1713.93027        42.20027
R06  21392738.65226      -651.67126        37.10026
R18  21466099.36627      3564.77127        44.90027
R16  20471215.61028      1168.06628        51.00028
R15  20765699.64228     -1449.85328        53.10028
R05  22487375.35127     -4147.72927        46.60027
R24  23505901.94028     -3061.16728        51.40028
R17  20743580.65528       422.94028        52.20028
E07  23958033.03626      -839.97726        37.80026
E27  25612961.75328      1525.42528        49.70028
E29  26199565.35626      1842.04826        39.50026
E30  23609872.36327      -351.11227        46.50027
E34  27347571.70728      2437.50028        47.70028
E36  27511119.58529       770.40729        54.10029
> 2025 11 28 23 07 25.4429896  0 23                      
G01  23803674.99628       913.85028        49.90028
G02  24708261.56428     -1410.05028        52.70028
G07  23009358.69026     -2566.75026        38.80026
G13  20795410.87427      -288.75027        44.30027
G14  20469158.13427      -710.85027        45.40027
G15  22393671.32127       656.40027        46.90027
G17  20557651.47127      1114.20027        42.30027
G19  21638581.65928      2735.50028        49.00028
G22  20714426.13827      -273.75027        47.10027
G30  21109177.55827     -1703.20027        42.70027
R06  21392848.97626      -639.45026        38.00026
R18  21465422.43427      3575.35027        44.60027
R16  20470999.45928      1179.30028        51.20028
R15  20765971.25428     -1438.85028        52.90028
R05  22488152.11327     -4136.75027        46.00027
R24  23506476.64228     -3049.75028        51.30028
R17  20743507.20628       433.45028        51.70028
E07  23958186.23026      -830.27926        38.40026
E27  25612670.35428      1535.35928        49.60028
E29  26199218.19626      1851.86326        40.70026
E30  23609941.61527      -341.18327        46.40027
E34  27347108.82828      2447.45028        47.80028
E36  27510972.68729       780.04829        53.90029
> 2025 11 28 23 07 26.4429896  0 24                      
G01  23803502.61528       936.60028        50.10028
G02  24708527.18028     -1387.55028        52.60028
G07  23009833.26126     -2544.20026        38.10026
G13  20795469.63327      -266.00027        44.20027
G14  20469292.14127      -688.05027        45.20027
G15  22393541.81127       678.25027        47.40027
G17  20557433.82227      1136.95027        42.50027
G19  21638056.72228      2758.00028        48.60028
G22  20714478.30227      -251.00027        47.20027
G30  21109493.53927     -1681.30027        42.90027
R06  21392985.38226      -619.80026        38.20026
R18  21464754.79727      3598.85027        45.20027
R16  20470778.81228      1202.10028        51.30028
R15  20766231.77428     -1415.95028        52.90028
R05  22488926.77727     -4112.85027        45.80027
R24  23507039.05328     -3027.35028        51.40028
R17  20743422.66528       456.00028        51.60028
E07  23958341.52226      -808.10026        39.40026
E08  25870651.35824     -2921.85024        27.80024
E27  25612376.85828      1557.95128        49.50028
E29  26198860.24426      1874.25826        41.10026
E30  23610001.57327      -318.55127        46.80027
E34  27346638.75328      2470.07028        48.40028
E36  27510821.89229       802.34729        54.10029
> 2025 11 28 23 07 27.4429896  0 23                      
G01  23803323.04028       961.62328        50.30028
G02  24708787.99928     -1362.86128        52.70028
G07  23010323.42226     -2519.25926        38.20026
G13  20795512.80327      -241.70827        45.30027
G14  20469418.95327      -663.43127        45.50027
G15  22393410.80127       703.27927        47.20027
G17  20557219.47026      1161.60526        41.40026
G19  21637527.88828      2782.82428        49.40028
G22  20714521.17327      -226.40827        47.20027
G30  21109803.82427     -1656.17227        42.80027
R06  21393093.30726      -594.92726        37.60026
R18  21464083.86127      3623.40127        45.50027
R16  20470557.86528      1227.55728        50.80028
R15  20766496.49128     -1390.36228        52.90028
R05  22489699.64227     -4088.37227        47.40027
R24  23507605.36128     -3001.75328        51.40028
R17  20743327.93028       480.39328        51.60028
E07  23958489.32026      -784.52126        37.20026
E27  25612078.56428      1581.76228        49.80028
E29  26198506.18926      1897.88026        40.10026
E30  23610057.93427      -294.81627        47.00027
E34  27346166.88028      2494.01728        48.20028
E36  27510666.29929       825.97329        54.30029
> 2025 11 28 23 07 28.4429896  0 23                      
G01  23803140.16628       941.35028        50.10028
G02  24709048.51928     -1383.35028        52.50028
G07  23010799.19226     -2539.10026        39.00026
G13  20795561.66927      -261.55027        45.30027
G14  20469545.76627      -683.55027        45.10027
G15  22393279.79227       683.90027        46.70027
G17  20556994.02626      1141.70026        40.60026
G19  21637002.05228      2763.75028        49.60028
G22  20714566.14127      -246.00027        46.90027
G30  21110110.51226     -1675.75026        41.30026
R06  21393211.72526      -613.50026        37.40026
R18  21463391.94027      3603.70027        45.40027
R16  20470328.82328      1207.90028        50.70028
R15  20766756.71128     -1409.80028        52.70028
R05  22490465.01227     -4108.45027        47.00027
R24  23508170.76928     -3022.75028        51.20028
R17  20743238.89228       459.95028        51.10028
E07  23958637.41826      -803.48426        36.40026
E27  25611780.27128      1563.24028        49.50028
E29  26198144.63926      1879.26926        39.60026
E30  23610116.99327      -313.33827        47.00027
E34  27345694.70728      2475.53828        47.70028
E36  27510511.60629       807.22629        53.90029
> 2025 11 28 23 07 29.4429896  0 23                      
G01  23802961.49028       908.25028        50.50028
G02  24709317.13328     -1415.80028        52.90028
G07  23011284.25726     -2572.40026        39.10026
G13  20795611.73527      -294.45027        45.40027
G14  20469685.16927      -715.65027        45.60027
G15  22393155.67827       649.85027        46.70027
G17  20556778.17627      1108.80027        42.20027
G19  21636480.11428      2730.35028        48.90028
G22  20714615.60728      -278.15028        47.80028
G30  21110428.89126     -1707.80026        41.10026
R06  21393319.35026      -648.25026        37.40026
R18  21462724.30227      3570.05027        45.30027
R16  20470112.37328      1174.60028        51.30028
R15  20767020.82828     -1443.00028        52.80028
R05  22491239.07628     -4141.75028        48.20028
R24  23508737.37728     -3056.00028        51.30028
R17  20743154.35028       426.05028        51.30028
E07  23958798.10626      -836.15426        36.10026
E27  25611485.57528      1531.04928        49.50028
E29  26197795.08126      1846.79926        39.90026
E30  23610181.44927      -345.55627        47.10027
E34  27345227.33028      2443.26328        47.90028
E36  27510359.91129       774.66129        54.00029
> 2025 11 28 23 07 30.4429896  0 24                      
G01  23802790.30828       912.38628        49.90028
G02  24709582.74928     -1412.04028        53.20028
G07  23011774.11726     -2567.38126        39.90026
G13  20795672.29327      -290.47027        45.40027
G14  20469817.97727      -710.88427        46.20027
G15  22393024.96927       654.69027        47.30027
G17  20556562.92527      1113.01427        41.70027
G19  21635961.17328      2735.01928        49.60028
G22  20714665.37328      -273.90728        47.80028
G30  21110762.26126     -1704.08926        40.80026
R06  21393459.65326      -644.39126        38.10026
R18  21462060.86227      3574.75027        44.60027
R16  20469888.12928      1179.53828        50.50028
R15  20767291.24128     -1438.45928        52.30028
R05  22492011.34228     -4136.31128        48.60028
R24  23509306.68328     -3051.97228        51.90028
R17  20743071.60828       430.17228        51.20028
E07  23958948.60225      -826.55025        33.50025
E08  25872871.92125     -2943.35025        29.90025
E27  25611192.37828      1536.80328        49.00028
E29  26197440.42726      1852.35626        41.20026
E30  23610244.70528      -339.76228        47.60028
E34  27344761.15328      2449.05628        48.20028
E36  27510213.61329       780.13729        54.00029
> 2025 11 28 23 07 31.4429896  0 23                      
G01  23802615.23028       923.50028        50.50028
G02  24709848.36528     -1401.15028        53.40028
G07  23012260.68125     -2554.75025        35.30025
G13  20795720.55927      -279.85027        41.70027
G14  20469952.58427      -699.60027        45.60027
G15  22392902.95328       664.40028        48.70028
G17  20556350.37227      1123.35027        42.90027
G19  21635442.83228      2745.90028        47.50028
G22  20714719.33527      -262.70027        46.80027
G30  21111088.43527     -1694.15027        43.00027
R06  21393569.07826      -633.35026        38.80026
R18  21461385.72927      3585.05027        44.90027
R16  20469662.68528      1190.85028        51.70028
R15  20767564.95128     -1426.85028        52.60028
R05  22492783.90728     -4125.00028        48.00028
R24  23509876.88828     -3040.50028        52.00028
R17  20742985.56728       440.65028        50.30028
E07  23959107.79226      -820.54826        38.00026
E27  25610898.28128      1546.87328        48.40028
E29  26197084.87327      1862.30427        43.50027
E30  23610310.65928      -329.79628        47.80028
E34  27344294.07628      2459.17428        48.10028
E36  27510063.11729       789.93429        54.00029
> 2025 11 28 23 07 32.4429896  0 23                      
G01  23802436.55328       932.38428        50.30028
G02  24710116.38028     -1392.00128        53.40028
G07  23012746.64426     -2546.76826        36.50026
G13  20795774.82227      -271.52927        44.30027
G14  20470085.69227      -690.98827        45.20027
G15  22392776.74028       673.69328        47.80028
G17  20556138.41927      1132.19927        41.60027
G19  21634917.59528      2754.71428        48.00028
G22  20714767.60228      -254.07528        47.90028
G30  21111410.71227     -1684.54227        41.60027
R06  21393694.09126      -625.32626        38.20026
R18  21460715.39327      3594.49927        45.10027
R16  20469443.83628      1199.89128        50.20028
R15  20767830.86728     -1418.03928        51.90028
R05  22493558.57128     -4115.93628        48.80028
R24  23510440.49828     -3031.67828        51.60028
R17  20742905.52328       449.22328        51.60028
E07  23959273.27726      -812.29126        37.50026
E27  25610604.18528      1555.68628        48.60028
E29  26196732.31726      1870.88426        41.00026
E30  23610371.51728      -320.85328        47.50028
E34  27343825.20127      2468.02327        47.40027
E36  27509909.62329       798.51029        53.50029
> 2025 11 28 23 07 33.4429896  0 24                      
G01  23802258.77628       953.21628        50.70028
G02  24710380.19729     -1371.32929        53.80029
G07  23013230.50926     -2525.31626        37.40026
G13  20795822.78927      -250.48427        44.80027
G14  20470217.00127      -669.70727        45.70027
G15  22392648.42928       694.42428        48.10028
G17  20555910.87626      1153.14026        41.40026
G19  21634389.66128      2775.76328        48.40028
G22  20714813.77028      -232.72328        48.10028
G30  21111729.69126     -1663.44926        41.20026
R06  21393813.10926      -604.42026        38.80026
R18  21460035.46427      3615.90327        46.10027
R16  20469220.79128      1221.63028        48.60028
R15  20768090.48728     -1396.32428        50.40028
R05  22494326.03928     -4094.24128        49.30028
R24  23511008.00528     -3010.53628        51.70028
R17  20742812.28728       470.12928        51.30028
E07  23959416.27825      -792.55025        33.20025
E08  25874553.75625     -2905.50025        29.90025
E27  25610305.59228      1577.20528        48.60028
E29  26196374.66426      1892.20126        40.90026
E30  23610431.17628      -299.46928        47.80028
E34  27343351.52928      2489.58928        47.70028
E36  27509755.53028       819.72828        53.20028
> 2025 11 28 23 07 34.4429896  0 24                      
G01  23802078.00128       938.43528        52.30028
G02  24710642.51528     -1386.34328        53.20028
G07  23013717.97225     -2538.60025        33.70025
G13  20795862.36127      -265.84127        41.70027
G14  20470341.41527      -684.39627        45.40027
G15  22392517.42028       679.66328        48.10028
G17  20555698.62327      1138.21927        42.00027
G19  21633863.52527      2760.81127        46.60027
G22  20714858.13927      -247.54127        47.40027
G30  21112039.97626     -1678.50826        41.10026
R06  21393917.13726      -619.30226        37.90026
R18  21459371.12427      3600.61327        45.60027
R16  20468990.25028      1206.76728        50.20028
R15  20768347.40928     -1411.37028        50.40028
R05  22495096.20628     -4109.00628        48.40028
R24  23511574.01328     -3025.61128        52.00028
R17  20742731.04328       454.61928        52.20028
E07  23959574.26926      -806.77026        38.60026
E08  25875102.67624     -2918.45024        28.80024
E27  25610009.99628      1561.53128        49.10028
E29  26196018.51126      1876.46426        41.10026
E30  23610490.23527      -315.13127        47.00027
E34  27342881.45428      2474.10128        47.50028
E36  27509602.03628       803.85628        51.70028
> 2025 11 28 23 07 35.4429896  0 24                      
G01  23801902.62328       897.40028        49.50028
G02  24710910.23029     -1429.05029        53.50029
G07  23014196.14126     -2579.95026        37.90026
G13  20795926.21726      -307.30026        38.80026
G14  20470478.42027      -725.95027        46.40027
G15  22392390.30828       636.05028        47.90028
G17  20555483.67227      1095.80027        42.70027
G19  21633339.48828      2719.25028        47.80028
G22  20714910.00327      -288.50027        47.20027
G30  21112363.45226     -1718.90026        39.80026
R06  21394048.14626      -662.95026        38.80026
R18  21458697.19027      3557.75027        46.70027
R16  20468761.20928      1164.65028        49.60028
R15  20768618.72228     -1455.95028        52.30028
R05  22495866.67328     -4151.05028        47.60028
R24  23512143.31929     -3068.60029        55.60029
R17  20742657.59427       411.45027        46.30027
E07  23959724.76526      -847.86226        37.30026
E08  25875658.49225     -2957.15025        32.00025
E27  25609715.60028      1521.19728        49.00028
E29  26195660.55927      1835.79327        42.00027
E30  23610554.69028      -355.57328        48.80028
E34  27342413.77827      2433.51927        46.80027
E36  27509455.43728       763.05928        50.60028
> 2025 11 28 23 07 36.4429896  0 23                      
G01  23801736.53828       889.76128        51.40028
G02  24711183.34129     -1434.66429        54.30029
G07  23014684.50326     -2588.91826        37.70026
G13  20795976.88226      -314.24526        40.40026
G14  20470615.12527      -731.91927        46.90027
G15  22392272.78928       630.45328        48.10028
G17  20555276.81527      1090.02627        41.70027
G19  21632823.54527      2712.68027        45.70027
G22  20714960.66827      -295.02827        47.10027
G30  21112701.31827     -1726.14027        41.60027
R06  21394171.66026      -669.91726        39.10026
R18  21458035.24927      3551.66627        45.50027
R16  20468539.06228      1158.57628        50.20028
R15  20768888.83528     -1459.35528        53.00028
R05  22496643.73527     -4157.78527        46.20027
R24  23512718.62129     -3075.17829        55.00029
R17  20742579.34828       404.94228        50.80028
E07  23959890.25026      -854.05326        38.40026
E27  25609425.70128      1516.33928        49.30028
E29  26195313.69927      1830.72727        43.00027
E30  23610621.84428      -360.31228        48.60028
E34  27341949.10027      2428.78527        45.40027
E36  27509309.43928       758.02928        52.90028
> 2025 11 28 23 07 37.4429896  0 24                      
G01  23801561.45928       907.10028        52.50028
G02  24711456.75229     -1417.40029        54.40029
G07  23015170.46626     -2572.30026        38.90026
G13  20796047.63326      -298.45026        41.40026
G14  20470752.43027      -714.60027        47.10027
G15  22392147.47628       647.25028        48.10028
G17  20555069.95826      1106.10026        40.80026
G19  21632308.50227      2730.75027        46.30027
G22  20715018.22827      -277.25027        46.80027
G30  21113039.78427     -1710.00027        41.80027
R06  21394297.27326      -651.30026        38.40026
R18  21457364.31327      3569.10027        44.90027
R16  20468326.21028      1176.15028        50.30028
R15  20769161.34628     -1442.10028        52.60028
R05  22497428.89127     -4140.45027        46.40027
R24  23513288.82629     -3057.35029        54.70029
R17  20742492.70828       422.20028        51.50028
E07  23960051.53926      -836.90026        37.10026
E08  25876781.21424     -2955.15024        26.60024
E27  25609135.50228      1532.63728        49.20028
E29  26194962.04227      1846.79427        42.30027
E30  23610688.69828      -344.05628        48.10028
E34  27341485.62127      2445.09227        46.10027
E36  27509163.73928       774.02428        53.00028
> 2025 11 28 23 07 38.4429896  0 23                      
G01  23801389.97828       928.60028        51.80028
G02  24711722.66829     -1395.45029        54.70029
G07  23015662.12626     -2549.60026        39.40026
G13  20796103.99427      -276.50027        42.10027
G14  20470888.53627      -692.30027        47.00027
G15  22392024.86128       668.80028        48.30028
G17  20554862.20226      1129.10026        41.30026
G19  21631782.66627      2753.40027        47.10027
G22  20715067.39427      -255.50027        46.60027
G30  21113355.16627     -1687.65027        42.10027
R06  21394409.39626      -630.45026        38.30026
R18  21456691.87927      3590.70027        43.60027
R16  20468108.56028      1198.60028        50.20028
R15  20769431.15928     -1419.30028        52.20028
R05  22498191.86328     -4116.95028        47.90028
R24  23513858.43229     -3034.70029        55.20029
R17  20742416.26128       444.05028        51.70028
E07  23960210.12926      -814.77426        39.50026
E27  25608841.10528      1554.92728        49.20028
E29  26194607.68827      1868.83927        42.60027
E30  23610751.35428      -321.75428        48.00028
E34  27341017.94427      2467.47927        45.90027
E36  27509014.44328       796.01228        52.60028
> 2025 11 28 23 07 39.4429896  0 23                      
G01  23801209.20328       955.71128        52.10028
G02  24711984.98629     -1370.35029        55.00029
G07  23016132.80026     -2523.60026        38.50026
G13  20796150.16227      -249.50027        41.60027
G14  20471016.24828      -667.05028        47.50028
G15  22391886.95628       694.85028        48.10028
G17  20554638.85726      1154.00026        41.20026
G19  21631257.42928      2777.50028        48.30028
G22  20715115.66128      -230.25028        47.50028
G30  21113679.54127     -1660.50027        41.70027
R06  21394529.91226      -603.89626        39.40026
R18  21456016.44627      3617.75027        43.60027
R16  20467881.61828      1225.10028        50.10028
R15  20769695.27628     -1393.10028        52.80028
R05  22498969.22528     -4091.00028        48.80028
R24  23514422.04229     -3009.50029        55.10029
R17  20742327.82228       469.90028        51.60028
E07  23960360.92426      -789.00826        38.90026
E27  25608541.91328      1580.84028        50.00028
E29  26194249.43627      1894.76127        42.00027
E30  23610810.41328      -295.88628        48.50028
E34  27340546.67127      2493.37127        45.70027
E36  27508859.75028       821.71328        52.20028
> 2025 11 28 23 07 40.4429896  0 24                      
G01  23801028.72828       930.45028        52.30028
G02  24712249.40329     -1394.20029        54.70029
G07  23016626.25826     -2546.26526        39.60026
G13  20796202.92526      -273.31126        40.30026
G14  20471145.15827      -689.32627        46.50027
G15  22391763.44228       670.05028        47.70028
G17  20554413.41326      1130.20026        40.80026
G19  21630729.19527      2752.75027        45.60027
G22  20715160.93027      -253.50027        46.90027
G30  21113990.12627     -1684.40627        42.20027
R06  21394654.02626      -630.70026        39.10026
R18  21455351.20727      3593.75027        44.60027
R16  20467652.87628      1201.05028        49.70028
R15  20769956.69528     -1416.80028        52.50028
R05  22499730.99828     -4115.75028        48.10028
R24  23514988.05029     -3033.55029        54.50029
R17  20742244.18028       443.80028        50.20028
E07  23960512.61926      -813.06526        39.80026
E08  25878446.86124     -2915.15024        27.40024
E27  25608242.42028      1557.21428        48.20028
E29  26193889.38526      1870.89026        40.90026
E30  23610867.07428      -319.57628        48.50028
E34  27340073.89827      2469.90927        45.50027
E36  27508707.15628       797.90928        52.10028
> 2025 11 28 23 07 41.4429896  0 23                      
G01  23800855.44828       898.75028        52.20028
G02  24712518.61729     -1426.20029        55.10029
G07  23017114.32126     -2578.75026        38.60026
G13  20796256.88827      -306.55027        42.70027
G14  20471280.96428      -722.05028        47.50028
G15  22391634.23127       638.40027        47.20027
G17  20554208.05526      1097.15026        40.50026
G19  21630208.45528      2721.75028        47.60028
G22  20715211.59528      -285.70028        47.60028
G30  21114316.00026     -1718.80026        41.20026
R06  21394767.64826      -663.45026        39.10026
R18  21454685.66727      3560.85027        43.70027
R16  20467426.83228      1169.05028        49.90028
R15  20770225.01028     -1449.65028        53.00028
R05  22500501.76428     -4147.25028        48.50028
R24  23515553.45829     -3066.95029        55.40029
R17  20742160.23828       411.65028        52.00028
E07  23960675.10726      -845.19326        39.10026
E27  25607953.42028      1525.45528        50.00028
E29  26193537.72826      1838.90826        41.20026
E30  23610931.82928      -351.27428        48.20028
E34  27339608.32027      2438.07327        45.40027
E36  27508557.85928       765.78728        52.20028
> 2025 11 28 23 07 42.4429896  0 23                      
G01  23800686.66528       897.65928        52.40028
G02  24712787.23129     -1426.95229        54.80029
G07  23017604.18126     -2579.04126        39.60026
G13  20796311.75027      -306.20027        41.70027
G14  20471416.17127      -720.95027        47.30027
G15  22391512.51628       639.20028        48.70028
G17  20553988.00726      1097.31926        40.40026
G19  21629685.91727      2721.96827        45.40027
G22  20715264.05827      -284.50027        47.20027
G30  21114636.77827     -1716.55027        42.20027
R06  21394895.95926      -661.25026        38.40026
R18  21454004.23927      3561.85027        45.00027
R16  20467209.48328      1170.05028        50.30028
R15  20770502.61728     -1448.30028        52.40028
R05  22501275.22928     -4145.90028        48.20028
R24  23516129.95929     -3067.52129        54.70029
R17  20742090.98628       412.60028        51.60028
E07  23960838.49426      -844.43026        39.10026
E27  25607661.72228      1526.49528        49.90028
E29  26193187.87126      1839.78526        41.40026
E30  23611001.38128      -350.27628        48.50028
E34  27339143.04227      2439.08327        45.70027
E36  27508413.65928       766.53128        52.60028
> 2025 11 28 23 07 43.4429896  0 23                      
G01  23800512.48528       908.70028        52.40028
G02  24713060.04229     -1415.70029        54.80029
G07  23018096.74026     -2568.45026        39.50026
G13  20796373.20827      -296.00027        41.90027
G14  20471554.67527      -711.30027        47.10027
G15  22391386.30328       648.15028        48.00028
G17  20553783.24926      1108.45026        39.90026
G19  21629169.97427      2733.00027        45.90027
G22  20715316.82228      -275.05028        47.70028
G30  21114965.05127     -1706.65027        42.20027
R06  21395021.27226      -652.25026        39.10026
R18  21453345.89527      3570.85027        44.90027
R16  20466987.93628      1179.80028        50.70028
R15  20770775.42928     -1438.55028        52.50028
R05  22502053.79028     -4136.00028        48.40028
R24  23516703.16229     -3056.35029        55.00029
R17  20742016.93828       420.90028        52.10028
E07  23960997.08426      -834.78426        38.10026
E27  25607371.22328      1536.35928        50.30028
E29  26192835.91427      1849.42227        41.70027
E30  23611063.73828      -340.35528        48.10028
E34  27338678.66427      2449.07227        45.60027
E36  27508265.26128       776.12128        52.40028
> 2025 11 28 23 07 44.4429896  0 23                      
G01  23800337.10728       930.55028        52.00028
G02  24713326.55729     -1394.15029        55.00029
G07  23018587.80026     -2546.55026        38.90026
G13  20796418.17626      -274.75026        41.40026
G14  20471689.58127      -689.80027        47.30027
G15  22391260.99028       670.70028        47.60028
G17  20553561.40326      1128.80026        39.70026
G19  21628642.93927      2753.65027        46.50027
G22  20715369.58527      -252.75027        47.20027
G30  21115294.52327     -1685.40027        41.70027
R06  21395132.79526      -632.00026        39.60026
R18  21452674.66027      3594.60027        44.50027
R16  20466765.79028      1202.65028        50.50028
R15  20771039.54628     -1416.20028        52.60028
R05  22502824.55628     -4114.15028        48.30028
R24  23517271.56929     -3034.65029        54.70029
R17  20741934.19528       442.45028        52.20028
E07  23961156.87326      -813.35326        37.20026
E27  25607076.22728      1558.13028        50.80028
E29  26192480.36026      1870.95026        41.40026
E30  23611126.09528      -318.64128        48.40028
E34  27338208.58927      2470.80427        45.40027
E36  27508115.66528       797.60528        52.30028
> 2025 11 28 23 07 45.4429896  0 24                      
G01  23800155.73228       946.84528        51.90028
G02  24713588.57629     -1377.85629        54.30029
G07  23019059.97426     -2529.77626        40.30026
G13  20796478.43527      -259.41427        41.50027
G14  20471819.09227      -673.27227        47.10027
G15  22391137.17527       686.08427        46.90027
G17  20553349.44926      1145.40126        38.80026
G19  21628119.50227      2770.60627        44.00027
G22  20715418.75127      -236.50627        47.20027
G30  21115617.99926     -1669.11126        41.30026
R06  21395260.50726      -615.51326        39.10026
R18  21451997.72827      3609.90427        44.70027
R16  20466546.94228      1218.87028        50.90028
R15  20771303.66328     -1399.22528        53.20028
R05  22503596.22228     -4096.85628        47.50028
R24  23517839.67629     -3017.53829        55.40029
R17  20741852.95128       458.83928        50.10028
E07  23961309.16826      -797.00426        39.00026
E08  25881245.72425     -2907.20025        33.40025
E27  25606777.93428      1573.65128        49.40028
E29  26192121.50926      1886.47626        41.10026
E30  23611185.15428      -303.15228        48.60028
E34  27337739.11427      2486.50427        45.30027
E36  27507961.57228       812.95328        52.60028
> 2025 11 28 23 07 46.4429896  0 24                      
G01  23799982.15228       914.65028        52.50028
G02  24713854.19229     -1410.05029        54.00029
G07  23019554.03226     -2560.15026        39.50026
G13  20796525.80226      -291.80026        37.60026
G14  20471949.50127      -705.05027        47.20027
G15  22391007.06627       654.10027        45.90027
G17  20553142.59327      1112.80027        42.40027
G19  21627593.36627      2740.25027        46.30027
G22  20715465.21927      -267.95027        47.10027
G30  21115945.37226     -1700.25026        39.40026
R06  21395374.72726      -648.05026        40.10026
R18  21451332.48927      3580.15027        42.60027
R16  20466325.09528      1187.35028        50.80028
R15  20771565.08228     -1430.45028        52.80028
R05  22504361.59227     -4127.50027        46.90027
R24  23518406.28329     -3050.55029        55.50029
R17  20741765.41228       425.30028        51.10028
E07  23961456.36626      -826.25026        38.00026
E08  25881795.54324     -2923.45024        28.60024
E27  25606482.03928      1543.89628        49.70028
E29  26191768.65326      1856.34326        39.60026
E30  23611247.81028      -332.96028        47.60028
E34  27337267.54127      2456.76227        45.30027
E36  27507812.57528       782.92028        52.80028
> 2025 11 28 23 07 47.4429896  0 23                      
G01  23799812.47028       889.07728        52.00028
G02  24714125.50429     -1436.16729        54.50029
G07  23020045.09226     -2587.89726        41.30026
G13  20796587.85926      -317.29026        37.60026
G14  20472085.30727      -730.24227        46.80027
G15  22390888.94727       627.82427        47.10027
G17  20552931.83927      1087.72927        42.90027
G19  21627073.82627      2713.43827        46.70027
G22  20715520.98028      -293.49028        47.50028
G30  21116263.15226     -1725.40026        40.00026
R06  21395490.14826      -673.73126        40.00026
R18  21450648.96227      3551.85927        43.10027
R16  20466099.35128      1161.15728        50.70028
R15  20771840.89128     -1456.93828        53.10028
R05  22505136.25628     -4155.01028        48.30028
R24  23518982.18529     -3076.93429        55.80029
R17  20741687.16628       399.61728        50.00028
E07  23961621.25226      -853.46826        37.90026
E27  25606191.54028      1519.11928        49.70028
E29  26191416.99727      1831.36827        42.80027
E30  23611313.46528      -357.67128        48.30028
E34  27336802.56327      2431.87627        45.40027
E36  27507665.67728       757.77228        53.10028
> 2025 11 28 23 07 48.4429896  0 23                      
G01  23799638.29028       895.60028        51.90028
G02  24714399.81429     -1429.40029        54.30029
G07  23020543.04726     -2581.15026        41.20026
G13  20796645.71926      -311.25026        40.00026
G14  20472224.11127      -723.95027        47.00027
G15  22390763.93427       633.80027        45.20027
G17  20552724.38226      1094.00026        41.00026
G19  21626555.78427      2720.25027        44.50027
G22  20715574.04428      -287.15028        47.90028
G30  21116588.12726     -1720.35026        38.80026
R06  21395624.15526      -669.51726        41.20026
R18  21449977.12727      3557.90027        43.90027
R16  20465872.70828      1167.50028        50.30028
R15  20772111.00429     -1450.65029        53.60029
R05  22505913.31827     -4148.05027        47.40027
R24  23519552.98929     -3070.50029        56.40029
R17  20741618.81328       405.55028        49.50028
E07  23961784.63926      -850.32126        39.80026
E27  25605897.74328      1524.52328        49.50028
E29  26191066.83926      1836.64426        40.50026
E30  23611380.91828      -352.27328        48.30028
E34  27336336.98527      2437.34027        45.00027
E36  27507518.17928       762.88828        52.70028
> 2025 11 28 23 07 49.4429896  0 23                      
G01  23799470.70628       910.75028        52.70028
G02  24714668.12829     -1413.55029        54.10029
G07  23021024.21426     -2564.25026        40.30026
G13  20796702.68026      -296.05026        39.70026
G14  20472361.41627      -708.10027        46.80027
G15  22390638.02127       649.55027        45.60027
G17  20552508.83126      1109.15026        41.10026
G19  21626038.64227      2735.80027        46.90027
G22  20715631.30427      -270.90027        47.20027
G30  21116913.10226     -1703.70026        40.20026
R06  21395744.97126      -652.65026        40.30026
R18  21449315.18527      3573.75027        43.40027
R16  20465657.45728      1184.20028        49.70028
R15  20772380.51728     -1433.80028        52.80028
R05  22506687.38228     -4132.10028        47.90028
R24  23520126.49229     -3054.20029        55.10029
R17  20741540.26828       420.65028        51.80028
E07  23961940.53126      -832.45026        37.70026
E27  25605609.34328      1540.57428        49.60028
E29  26190710.08626      1852.47226        39.00026
E30  23611445.37428      -336.23628        47.90028
E34  27335874.10527      2453.43727        45.10027
E36  27507372.47928       778.69628        52.80028
> 2025 11 28 23 07 50.4429896  0 23                      
G01  23799292.93028       932.35028        52.30028
G02  24714936.44329     -1392.95029        54.10029
G07  23021510.77727     -2542.95027        42.20027
G13  20796759.34026      -273.50026        40.40026
G14  20472490.92727      -686.55027        46.60027
G15  22390515.70628       670.30028        47.90028
G17  20552292.98126      1129.70026        40.60026
G19  21625515.20527      2756.30027        46.40027
G22  20715681.07027      -249.60027        47.20027
G30  21117236.87826     -1684.00026        38.40026
R06  21395867.28626      -632.15026        38.60026
R18  21448639.15327      3595.35027        42.70027
R16  20465440.40828      1205.95028        51.00028
R15  20772645.53428     -1412.00028        52.70028
R05  22507461.74627     -4111.20027        45.60027
R24  23520697.29729     -3032.35029        56.10029
R17  20741458.12528       442.40028        50.80028
E07  23962097.92226      -811.16226        37.70026
E27  25605310.74928      1562.23328        50.10028
E29  26190361.12727      1873.84627        42.90027
E30  23611505.93228      -314.62828        48.50028
E34  27335402.23227      2475.04827        44.30027
E36  27507219.88528       799.98828        52.90028
> 2025 11 28 23 07 51.4429896  0 23                      
G01  23799114.55328       950.16428        52.30028
G02  24715196.96229     -1374.60729        54.50029
G07  23021991.34427     -2525.23227        42.00027
G13  20796809.40626      -257.07226        39.70026
G14  20472620.13727      -668.36627        46.40027
G15  22390386.49527       688.37027        46.10027
G17  20552081.32726      1148.27026        41.30026
G19  21624988.76927      2774.73727        45.60027
G22  20715725.73928      -231.65528        47.70028
G30  21117545.06526     -1665.22126        40.00026
R06  21395982.10726      -614.00326        40.40026
R18  21447961.32327      3613.78527        44.30027
R16  20465210.46728      1224.30428        50.10028
R15  20772898.55928     -1393.79128        53.20028
R05  22508224.11828     -4091.38228        48.00028
R24  23521263.90529     -3014.47929        55.60029
R17  20741374.48228       460.02728        51.10028
E07  23962249.91726      -794.50126        38.00026
E27  25605012.15628      1579.14828        49.70028
E29  26189998.97826      1890.88826        39.90026
E30  23611564.69128      -297.70528        48.00028
E34  27334929.45927      2492.19727        44.40027
E36  27507067.29128       816.82528        52.80028
> 2025 11 28 23 07 52.4429896  0 24                      
G01  23798939.47428       916.35028        52.60028
G02  24715459.88029     -1408.40029        54.10029
G07  23022475.50926     -2559.30026        41.40026
G13  20796864.26826      -289.45026        39.90026
G14  20472748.44827      -701.05027        46.30027
G15  22390254.88627       653.95027        44.80027
G17  20551874.77027      1114.35027        41.90027
G19  21624465.33127      2741.70027        46.70027
G22  20715771.30728      -264.60028        47.70028
G30  21117858.94826     -1697.55026        39.90026
R06  21396094.52926      -648.25026        40.50026
R18  21447280.49427      3579.65027        42.90027
R16  20464987.12128      1191.30028        50.10028
R15  20773162.07628     -1427.20028        52.40028
R05  22508991.88628     -4125.40028        48.00028
R24  23521828.11429     -3048.70029        55.30029
R17  20741289.94128       426.35028        52.30028
E07  23962404.31026      -826.65026        35.80026
E08  25885152.01925     -2933.00025        29.60025
E27  25604717.16028      1547.53728        48.70028
E29  26189640.12726      1858.92626        38.30026
E30  23611624.65027      -329.38927        47.40027
E34  27334456.38727      2460.54427        44.80027
E36  27506917.39528       784.88228        52.70028
> 2025 11 28 23 07 53.4429896  0 24                      
G01  23798764.39528       887.25028        52.10028
G02  24715735.39029     -1437.15029        54.20029
G07  23022962.67227     -2587.40027        41.90027
G13  20796915.23226      -320.60026        41.20026
G14  20472887.25227      -730.30027        46.50027
G15  22390141.26527       624.50027        47.00027
G17  20551676.60827      1085.70027        42.40027
G19  21623947.89027      2712.20027        45.70027
G22  20715826.16928      -294.05028        47.80028
G30  21118199.51226     -1727.95026        39.50026
R06  21396222.84026      -678.70026        40.40026
R18  21446618.85227      3551.25027        43.60027
R16  20464763.17628      1160.90028        50.40028
R15  20773443.28229     -1457.05029        53.60029
R05  22509765.95028     -4154.95028        48.60028
R24  23522402.81729     -3078.90029        56.40029
R17  20741218.29128       395.95028        50.70028
E07  23962561.70126      -856.14626        37.60026
E08  25885711.73225     -2960.50025        33.60025
E27  25604426.36228      1518.42528        49.40028
E29  26189293.86627      1829.59227        41.60027
E30  23611693.00228      -358.42028        48.20028
E34  27333994.10727      2431.40227        44.80027
E36  27506771.39628       755.44728        53.00028
> 2025 11 28 23 07 54.4429896  0 24                      
G01  23798595.61228       896.30028        51.90028
G02  24716007.30129     -1428.65029        54.60029
G07  23023454.93127     -2579.50027        42.70027
G13  20796971.89326      -310.35026        40.80026
G14  20473021.85927      -721.75027        46.50027
G15  22390018.65028       633.50028        48.40028
G17  20551470.35027      1093.70027        42.40027
G19  21623431.94727      2721.15027        45.60027
G22  20715881.93128      -284.55028        48.30028
G30  21118528.98426     -1718.15026        39.90026
R06  21396363.74326      -668.60026        39.50026
R18  21445955.41127      3559.95027        42.10027
R16  20464554.82128      1170.60028        51.00028
R15  20773710.69729     -1447.30029        53.80029
R05  22510543.61227     -4145.20027        47.40027
R24  23522975.12029     -3069.45029        56.30029
R17  20741142.14328       404.10028        51.60028
E07  23962726.58726      -846.98326        37.90026
E08  25886279.53925     -2951.63725        34.30025
E27  25604133.46428      1527.59928        50.10028
E29  26188942.51027      1838.70227        42.20027
E30  23611755.35928      -349.24628        48.00028
E34  27333528.82927      2440.64427        44.90027
E36  27506623.29828       764.34728        52.50028
> 2025 11 28 23 07 55.4429896  0 24                      
G01  23798426.23028       904.40028        51.80028
G02  24716278.31429     -1420.45029        54.90029
G07  23023964.27826     -2572.68426        36.60026
G13  20797039.04726      -303.05026        41.20026
G14  20473157.06527      -713.40027        46.30027
G15  22389898.73327       641.55027        47.10027
G17  20551253.90027      1102.25027        42.70027
G19  21622910.60827      2730.00027        45.30027
G22  20715934.39428      -276.05028        48.20028
G30  21118854.55827     -1709.75027        44.60027
R06  21396468.37026      -662.60026        39.30026
R18  21445288.37327      3567.60027        45.00027
R16  20464317.98528      1179.70028        50.90028
R15  20773982.30928     -1438.85028        53.40028
R05  22511316.77727     -4136.80027        47.40027
R24  23523546.52529     -3061.30029        55.40029
R17  20741070.19328       412.15028        52.70028
E07  23962884.27826      -838.49226        36.40026
E08  25886842.84926     -2943.81426        35.60026
E27  25603843.26528      1536.27128        49.90028
E29  26188592.65227      1847.07827        43.20027
E30  23611822.51328      -340.65228        48.40028
E34  27333065.05027      2449.35927        46.40027
E36  27506479.09828       772.70928        52.80028
> 2025 11 28 23 07 56.4429896  0 24                      
G01  23798251.45128       921.20128        51.80028
G02  24716547.22829     -1403.48029        54.70029
G07  23024437.05126     -2553.37126        39.00026
G13  20797093.30927      -286.74427        41.80027
G14  20473289.57427      -695.82827        46.40027
G15  22389771.92127       658.30127        47.00027
G17  20551036.85027      1118.95127        42.60027
G19  21622384.77226      2746.69326        39.60026
G22  20715984.46028      -259.21628        47.80028
G30  21119178.63427     -1693.48027        44.50027
R06  21396592.78426      -644.95126        38.30026
R18  21444616.23827      3584.98827        46.10027
R16  20464104.83228      1196.68928        50.90028
R15  20774250.32328     -1421.48828        53.00028
R05  22512091.44127     -4119.53427        45.60027
R24  23524120.62729     -3044.15529        55.60029
R17  20740988.35028       428.87028        52.40028
E07  23963047.06526      -822.09226        37.00026
E08  25887391.46925     -2927.80025        31.60025
E27  25603550.96828      1553.13528        50.10028
E29  26188240.09627      1863.69227        42.60027
E30  23611885.76928      -323.77028        48.00028
E34  27332597.67427      2466.18927        46.60027
E36  27506326.80328       789.27628        52.60028
> 2025 11 28 23 07 57.4429896  0 24                      
G01  23798074.87328       939.53728        52.00028
G02  24716813.14429     -1385.21129        55.30029
G07  23024923.31426     -2534.68426        36.60026
G13  20797146.37226      -268.90226        40.90026
G14  20473423.58127      -677.40427        46.40027
G15  22389652.60328       676.77528        48.20028
G17  20550826.69627      1137.15827        43.70027
G19  21621846.34425      2764.91825        34.90025
G22  20716031.52727      -240.80427        47.10027
G30  21119493.71627     -1675.35327        43.40027
R06  21396710.30326      -626.96726        38.60026
R18  21443945.00327      3603.44227        47.30027
R16  20463872.79328      1215.60228        50.10028
R15  20774513.54128     -1402.63228        53.40028
R05  22512865.80527     -4100.27327        44.80027
R24  23524688.13429     -3025.47129        55.40029
R17  20740903.20928       446.94028        52.80028
E07  23963197.56126      -804.50726        37.50026
E08  25887945.78525     -2907.95025        32.50025
E27  25603250.87528      1570.69528        50.40028
E29  26187883.64327      1881.19927        42.60027
E30  23611942.43028      -306.24228        47.70028
E34  27332127.29928      2483.86828        47.90028
E36  27506175.70828       806.64328        52.90028
> 2025 11 28 23 07 58.4429896  0 24                      
G01  23797897.09628       909.20028        51.30028
G02  24717079.65929     -1415.35029        54.30029
G07  23025420.97026     -2564.45026        37.70026
G13  20797201.23426      -298.05026        41.10026
G14  20473553.39127      -707.10027        46.00027
G15  22389522.79327       646.85027        46.20027
G17  20550606.64827      1107.45027        42.90027
G19  21621348.68927      2734.20027        45.90027
G22  20716077.99527      -270.25027        47.40027
G30  21119812.39527     -1705.80027        45.10027
R06  21396809.23426      -656.30026        38.20026
R18  21443265.37327      3573.90027        45.40027
R16  20463651.54628      1186.45028        49.90028
R15  20774780.95628     -1432.20028        53.40028
R05  22513635.97127     -4130.15027        44.50027
R24  23525255.94129     -3056.70029        55.90029
R17  20740832.15828       416.55028        53.20028
E07  23963352.85325      -833.23925        34.30025
E08  25888502.80025     -2944.00025        30.40025
E27  25602958.27828      1542.65128        49.30028
E29  26187528.68826      1852.95626        41.20026
E30  23612005.08628      -334.30228        47.90028
E34  27331656.92528      2455.94028        48.40028
E36  27506027.01129       778.42229        53.70029
> 2025 11 28 23 07 59.4429896  0 24                      
G01  23797728.01328       880.80028        52.40028
G02  24717350.37229     -1444.10029        54.80029
G07  23025900.33825     -2591.95025        32.00025
G13  20797258.79527      -327.65027        41.70027
G14  20473695.79327      -735.45027        47.00027
G15  22389403.47627       616.75027        47.40027
G17  20550411.48327      1078.70027        42.80027
G19  21620832.14726      2708.95026        40.00026
G22  20716130.15928      -299.40028        47.70028
G30  21120137.37027     -1733.05027        42.90027
R06  21396957.33226      -686.80026        38.70026
R18  21442604.63127      3544.60027        46.30027
R16  20463435.09628      1156.65028        50.20028
R15  20775054.96629     -1461.80029        53.80029
R05  22514413.03327     -4159.50027        44.70027
R24  23525830.94329     -3085.30029        55.40029
R17  20740757.80929       386.50029        53.80029
E07  23963517.73926      -861.93526        35.80026
E08  25889063.41225     -2966.75025        31.00025
E27  25602666.88028      1514.06928        49.80028
