     4.01           OBSERVATION DATA    M                   RINEX VERSION / TYPE
GnssLogger          samsung 12          20251128 232802 UTC PGM / RUN BY / DATE
Google GnssLogger                                           MARKER NAME
Unknown                                                     MARKER NUMBER
Unknown             Unknown                                 OBSERVER / AGENCY
Unknown             GnssLogger          v3.1.1.1            REC # / TYPE / VERS
Unknown             Unknown                                 ANT # / TYPE
        0.0000        0.0000        0.0000                  ANTENNA: DELTA H/E/N
G    3 C1C D1C S1C                                          SYS / # / OBS TYPES
R    3 C1C D1C S1C                                          SYS / # / OBS TYPES
E    3 C1C D1C S1C                                          SYS / # / OBS TYPES
  2025    11    28    23    28   02.0000000     GPS         TIME OF FIRST OBS
 8 R05  1 R06 -4 R07  5 R09 -2 R15  0 R16 -1 R17  4 R18 -3  GLONASS SLOT / FRQ #
samsung SM-G781U1 (Android 12) HW Year: 2019 HW Model:      COMMENT
qcom,SM8250,                                                COMMENT
                                                            END OF HEADER
> 2025 11 28 23 28 02.4429863  0 24                      
G01  23662404.27927       205.21627        46.30027
G02  25109487.18528     -2052.48428        53.40028
G07  23652665.22228     -2958.32528        47.50028
G13  20957792.44327     -1149.92827        46.00027
G14  20667136.16027     -1032.71027        44.30027
G15  22334791.06727      -221.85327        45.10027
G17  20379008.92727       335.04627        46.50027
G19  21049269.61527      2186.75727        43.10027
G22  20810736.44827      -602.70127        47.30027
G30  21566402.31125     -2243.25025        34.10025
R06  21656879.37526     -1682.97026        39.70026
R18  20705924.20826      2870.80026        36.40026
R16  20220108.73128       915.52228        50.10028
R15  21121971.38529     -1707.61029        53.90029
R05  23459210.34828     -4282.89628        49.10028
R17  20767925.18628      -713.97428        51.70028
R07  22687189.90627      1568.94227        46.80027
E07  24214678.64826     -1408.43826        38.00026
E08  26579175.04126     -3131.72826        37.80026
E27  25268673.38328      1322.35228        50.00028
E29  25812142.84627      1356.06527        46.50027
E30  23708666.45328      -559.34928        48.40028
E34  26789394.60927      2203.28427        42.90027
E36  27387524.93228       193.20528        50.30028
> 2025 11 28 23 28 03.4429863  0 24                      
G01  23662367.70528       228.15028        49.70028
G02  25109878.11429     -2029.10029        53.50029
G07  23653227.93228     -2934.25028        48.20028
G13  20958005.29627     -1127.75027        45.90027
G14  20667327.12827     -1010.55027        43.10027
G15  22334830.04027      -199.65027        47.30027
G17  20378938.77527       357.60027        47.30027
G19  21048845.10927      2210.65027        45.00027
G22  20810854.26627      -580.05027        46.30027
G30  21566831.01527     -2222.05027        41.90027
R06  21657199.85426     -1658.90026        38.70026
R18  20705377.68626      2892.15026        39.60026
R16  20219930.35528       938.65028        50.10028
R15  21122299.05828     -1684.20028        53.30028
R05  23460008.99528     -4258.70028        52.70028
R17  20768063.09028      -691.40028        52.30028
R07  22686893.11228      1592.50028        47.50028
E07  24214938.56827     -1387.48227        45.40027
E08  26579761.73526     -3109.15026        39.60026
E27  25268417.36028      1346.30028        49.20028
E29  25811880.22827      1379.95027        46.30027
E30  23708773.17928      -534.95028        47.60028
E34  26788971.30226      2225.70026        37.60026
E36  27387482.36228       217.55028        50.60028
> 2025 11 28 23 28 04.4429863  0 24                      
G01  23662322.73628       251.95028        50.60028
G02  25110259.75029     -2005.25029        53.70029
G07  23653782.24828     -2910.75028        50.10028
G13  20958214.55127     -1104.00027        46.20027
G14  20667516.59727      -985.40027        43.50027
G15  22334865.71528      -175.10028        47.90028
G17  20378869.52328       381.35028        47.90028
G19  21048418.50427      2234.60027        44.60027
G22  20810960.09327      -556.10027        46.20027
G30  21567250.12527     -2197.90027        43.70027
R06  21657517.63426     -1634.75026        39.20026
R18  20704818.27426      2916.20026        39.90026
R16  20219756.17528       963.60028        50.50028
R15  21122608.74329     -1659.35029        53.70029
R05  23460796.25028     -4233.60028        53.30028
R17  20768180.30928      -666.85028        52.50028
R07  22686595.41828      1616.55028        47.60028
E07  24215201.18627     -1361.65027        45.40027
E08  26580350.22826     -3082.20026        40.50026
E27  25268159.53828      1370.90028        49.40028
E29  25811613.41327      1404.10827        46.70027
E30  23708871.81128      -510.30028        47.60028
E34  26788539.30126      2250.50026        39.00026
E36  27387439.79128       241.30028        51.20028
> 2025 11 28 23 28 05.4429863  0 24                      
G01  23662270.57228       272.30028        49.20028
G02  25110637.78829     -1984.85029        54.10029
G07  23654336.26528     -2890.25028        50.00028
G13  20958421.10827     -1083.20027        46.10027
G14  20667701.86927      -965.00027        43.40027
G15  22334901.99028      -154.65028        47.60028
G17  20378792.77628       402.10028        48.30028
G19  21047997.29627      2254.90027        44.40027
G22  20811065.62027      -534.50027        46.30027
G30  21567668.93527     -2177.65027        43.80027
R06  21657807.83326     -1614.30026        39.10026
R18  20704286.14226      2937.95026        40.50026
R16  20219572.10328       984.25028        50.40028
R15  21122914.53229     -1638.10029        53.90029
R05  23461589.80029     -4212.20029        53.60029
R17  20768308.62028      -646.50028        52.90028
R07  22686292.32828      1637.15028        47.60028
E07  24215457.50927     -1341.02927        45.40027
E08  26580933.92326     -3061.86526        40.20026
E27  25267896.32028      1392.00228        49.40028
E29  25811347.79727      1424.77227        46.30027
E30  23708966.54528      -489.83028        47.90028
E34  26788110.89826      2271.57626        38.50026
E36  27387390.92528       261.77728        51.20028
> 2025 11 28 23 28 06.4429863  0 24                      
G01  23662217.20928       268.15528        48.10028
G02  25111015.82728     -1987.64328        53.30028
G07  23654882.78728     -2893.59128        49.80028
G13  20958627.36527     -1086.78427        45.50027
G14  20667886.54127      -967.49927        43.00027
G15  22334937.96528      -158.04228        47.50028
G17  20378719.92728       398.96428        47.50028
G19  21047569.79227      2252.25127        44.20027
G22  20811161.85427      -537.40127        46.10027
G30  21568080.25027     -2180.05127        43.70027
R06  21658127.71126     -1618.45626        39.30026
R18  20703733.02526      2933.13426        39.70026
R16  20219387.73028       982.14328        49.80028
R15  21123216.42328     -1641.13628        53.40028
R05  23462376.45628     -4214.88828        53.10028
R17  20768425.23928      -650.05728        52.40028
R07  22685974.24828      1633.53728        47.50028
E07  24215714.13127     -1344.96027        45.20027
E08  26581517.32026     -3065.49326        40.20026
E27  25267631.60428      1388.36928        49.10028
E29  25811075.58527      1420.88427        46.40027
E30  23709061.28028      -493.59128        47.90028
E34  26787675.29926      2268.18526        37.20026
E36  27387341.45928       257.81228        50.10028
> 2025 11 28 23 28 07.4429863  0 24                      
G01  23662171.94028       237.81128        48.40028
G02  25111396.86329     -2019.70029        53.80029
G07  23655439.50128     -2924.25028        49.90028
G13  20958839.31927     -1117.88327        45.90027
G14  20668075.41027      -999.10027        43.60027
G15  22334963.14828      -190.00028        47.70028
G17  20378646.77828       366.65028        48.00028
G19  21047139.88927      2220.95027        43.90027
G22  20811267.38027      -568.60027        46.10027
G30  21568500.55927     -2211.50027        43.60027
R06  21658419.11026     -1650.85026        39.10026
R18  20703189.20126      2902.11326        40.20026
R16  20219208.75428       950.40028        50.10028
R15  21123527.00829     -1673.15029        53.50029
R05  23463172.70529     -4246.65029        53.50029
R17  20768546.65528      -682.75028        52.50028
R07  22685672.05727      1600.70027        47.40027
E07  24215975.85027     -1375.24727        45.40027
E08  26582104.31326     -3095.49526        40.30026
E27  25267372.28328      1358.37528        49.00028
E29  25810808.47027      1390.54527        46.30027
E30  23709156.91328      -523.55028        48.30028
E34  26787249.89426      2237.91226        37.70026
E36  27387297.68928       227.48328        50.40028
> 2025 11 28 23 28 08.4429863  0 24                      
G01  23662128.47028       217.81628        50.10028
G02  25111784.49428     -2039.26628        53.40028
G07  23655995.61628     -2943.88228        49.70028
G13  20959057.26827     -1137.52527        45.60027
G14  20668272.97327     -1017.91727        43.30027
G15  22334999.72328      -209.23528        47.90028
G17  20378580.52328       347.69828        48.00028
G19  21046720.77927      2201.35927        43.70027
G22  20811373.50727      -587.82127        46.20027
G30  21568922.06727     -2230.75027        43.70027
R06  21658740.78726     -1670.64226        39.30026
R18  20702640.58126      2882.08126        40.50026
R16  20219027.97928       930.88328        50.30028
R15  21123848.38528     -1692.29628        52.80028
R05  23463973.15028     -4265.97928        53.30028
R17  20768674.36728      -702.75728        52.00028
R07  22685380.05928      1581.25028        47.50028
E07  24216237.56927     -1393.70627        45.20027
E08  26582692.50626     -3113.54126        40.40026
E27  25267117.16028      1340.22228        49.30028
E29  25810547.05127      1372.20727        46.40027
E30  23709259.44228      -541.63628        47.90028
E34  26786823.58926      2218.16726        37.00026
E36  27387254.22028       209.04628        51.50028
> 2025 11 28 23 28 09.4429863  0 24                      
G01  23662084.10128       226.55028        50.00028
G02  25112172.12628     -2030.35028        53.30028
G07  23656556.82828     -2934.70028        49.50028
G13  20959269.52127     -1128.80027        45.80027
G14  20668463.64127     -1010.00027        43.50027
G15  22335040.19528      -201.80028        47.50028
G17  20378515.16928       355.40028        47.70028
G19  21046300.17127      2210.00027        43.50027
G22  20811483.23127      -579.20027        45.80027
G30  21569344.77427     -2222.85027        43.70027
R06  21659074.45626     -1662.05026        39.60026
R18  20702103.65326      2891.15026        39.30026
R16  20218853.80028       939.15028        50.30028
R15  21124163.46728     -1683.80028        52.40028
R05  23464768.50028     -4256.70028        53.30028
R17  20768808.97428      -695.10028        52.50028
R07  22685084.46428      1589.55028        47.90028
E07  24216501.68627     -1388.60927        45.20027
E08  26583286.99426     -3107.98526        40.60026
E27  25266858.43928      1345.59828        49.10028
E29  25810282.63427      1377.45227        46.60027
E30  23709358.97328      -536.17228        48.10028
E34  26786394.58626      2227.80026        37.30026
E36  27387212.84828       216.30128        50.80028
> 2025 11 28 23 28 10.4429863  0 24                      
G01  23662039.43228       246.15028        49.80028
G02  25112556.46029     -2010.50029        54.10029
G07  23657110.84428     -2914.45028        49.50028
G13  20959483.87227     -1109.45027        46.20027
G14  20668654.90927      -988.85027        43.60027
G15  22335078.26827      -181.40027        47.40027
G17  20378442.01928       375.65028        48.40028
G19  21045878.06327      2229.05027        43.10027
G22  20811589.65727      -559.50027        45.80027
G30  21569766.28327     -2201.95027        43.50027
R06  21659370.35126     -1642.35026        39.50026
R18  20701555.03326      2910.00026        40.40026
R16  20218671.52628       960.45028        50.00028
R15  21124483.64528     -1663.00028        52.60028
R05  23465560.25228     -4235.85028        53.10028
R17  20768935.48628      -674.70028        52.70028
R07  22684781.37428      1609.20028        47.70028
E07  24216762.80527     -1366.05027        45.50027
E08  26583877.28626     -3086.00026        40.50026
E27  25266600.01828      1368.00028        49.30028
E29  25810018.51727      1399.25027        46.70027
E30  23709459.10428      -513.75028        47.80028
E34  26785970.08026      2247.15026        36.90026
E36  27387170.57728       236.31728        49.80028
> 2025 11 28 23 28 11.4429863  0 24                      
G01  23661988.76728       266.60028        49.50028
G02  25112936.59729     -1990.35029        54.40029
G07  23657661.86328     -2894.30028        49.40028
G13  20959696.42527     -1089.85027        45.90027
G14  20668843.77827      -969.30027        44.10027
G15  22335109.74628      -161.10028        48.10028
G17  20378370.66928       395.30028        48.20028
G19  21045453.25727      2249.35027        42.80027
G22  20811697.88227      -538.95027        46.10027
G30  21570183.89427     -2181.65027        43.90027
R06  21659670.44326     -1623.70026        39.20026
R18  20701004.61426      2930.45026        40.30026
R16  20218497.04728       980.60028        50.10028
R15  21124785.53628     -1642.70028        52.50028
R05  23466357.70028     -4214.55028        53.20028
R17  20769060.79928      -654.90028        52.80028
R07  22684476.48528      1629.80028        47.80028
E07  24217020.02727     -1346.33827        45.10027
E08  26584460.38226     -3065.24726        40.40026
E27  25266338.29928      1388.37328        49.40028
E29  25809747.80427      1419.69927        46.80027
E30  23709554.73828      -493.41728        48.10028
E34  26785538.67926      2267.84326        36.30026
E36  27387124.11028       256.12528        49.90028
> 2025 11 28 23 28 12.4429863  0 24                      
G01  23661937.80228       269.05328        49.20028
G02  25113315.83429     -1988.34029        54.60029
G07  23658210.18328     -2892.06828        49.50028
G13  20959901.48327     -1086.38327        46.20027
G14  20669027.25127      -966.20427        44.00027
G15  22335140.32528      -158.32928        48.10028
G17  20378292.12328       399.07528        48.20028
G19  21045025.75327      2253.24627        42.50027
G22  20811798.91327      -534.94327        45.60027
G30  21570594.30927     -2178.70727        43.20027
R06  21659971.43526     -1619.12126        39.40026
R18  20700452.39626      2934.05726        40.20026
R16  20218304.88028       984.69928        50.20028
R15  21125095.22228     -1638.56728        52.70028
R05  23467136.26128     -4212.13328        53.40028
R17  20769188.81128      -651.65828        52.80028
R07  22684174.29428      1632.08028        47.90028
E07  24217278.14827     -1343.77627        45.20027
E08  26585043.17926     -3062.21526        40.20026
E27  25266074.48228      1391.29828        49.40028
E29  25809477.69127      1422.19027        46.70027
E30  23709646.47428      -490.64728        48.20028
E34  26785104.57926      2270.56926        36.70026
E36  27387071.64628       258.79428        50.00028
> 2025 11 28 23 28 13.4429863  0 24                      
G01  23661891.33528       236.40028        49.50028
G02  25113695.67129     -2019.59129        53.60029
G07  23658765.99828     -2923.16128        49.00028
G13  20960111.63827     -1119.20027        45.40027
G14  20669215.52127      -997.36827        44.10027
G15  22335173.90228      -191.30028        47.60028
G17  20378223.47128       365.60028        48.00028
G19  21044591.05427      2220.50027        42.30027
G22  20811904.73927      -567.60027        45.60027
G30  21571020.01527     -2211.70027        42.60027
R06  21660274.22526     -1652.25026        39.00026
R18  20699909.77226      2901.05026        39.60026
R16  20218123.80528       951.45028        49.40028
R15  21125401.91028     -1671.35028        51.90028
R05  23467925.01528     -4243.51928        52.80028
R17  20769310.22728      -685.10028        52.20028
R07  22683866.40727      1599.20027        47.00027
E07  24217536.56927     -1375.12527        45.00027
E08  26585629.87326     -3093.27526        40.20026
E27  25265813.66228      1360.20428        48.80028
E29  25809210.27727      1390.85027        46.20027
E30  23709744.50728      -521.71628        47.90028
E34  26784678.87426      2239.35726        36.80026
E36  27387029.37528       227.36228        49.50028
> 2025 11 28 23 28 14.4429863  0 24                      
G01  23661846.96528       223.70928        49.40028
G02  25114083.30328     -2032.61128        53.30028
G07  23659324.51228     -2936.14028        49.60028
G13  20960323.59127     -1132.19827        45.60027
G14  20669415.78227     -1010.04827        44.20027
G15  22335209.87728      -204.59528        48.40028
G17  20378152.42028       353.27928        48.00028
G19  21044173.74327      2207.82827        42.60027
G22  20812015.06327      -579.93227        45.90027
G30  21571436.72627     -2223.93627        43.70027
R06  21660591.10626     -1665.72926        39.80026
R18  20699383.03626      2887.63826        39.10026
R16  20217950.22528       939.00628        50.40028
R15  21125711.89528     -1684.10028        52.30028
R05  23468722.16329     -4256.42029        53.50029
R17  20769443.63428      -698.74528        52.30028
R07  22683584.00327      1585.34227        47.40027
E07  24217799.48727     -1387.04327        45.20027
E08  26586218.36526     -3104.87526        40.10026
E27  25265555.84128      1348.51428        49.30028
E29  25808947.35927      1378.97927        46.10027
E30  23709843.43828      -533.26728        47.70028
E34  26784255.56726      2226.96726        36.20026
E36  27386987.40428       215.35428        50.20028
> 2025 11 28 23 28 15.4429863  0 24                      
G01  23661801.09728       240.15028        50.30028
G02  25114466.73829     -2015.70029        53.80029
G07  23659879.72728     -2918.85028        49.40028
G13  20960531.64727     -1115.85027        45.60027
G14  20669594.75827      -993.35027        44.30027
G15  22335248.55028      -187.75028        48.30028
G17  20378083.46728       370.10028        47.80028
G19  21043753.43427      2224.35027        42.40027
G22  20812124.78727      -563.05027        45.80027
G30  21571857.93527     -2207.10027        44.00027
R06  21660899.59226     -1649.90026        39.60026
R18  20698832.01826      2906.00026        39.50026
R16  20217781.44228       956.15028        50.90028
R15  21126025.47828     -1667.05028        52.80028
R05  23469515.71328     -4238.45028        53.40028
R17  20769568.34828      -682.45028        51.30028
R07  22683279.71328      1602.15028        47.60028
E07  24218060.00727     -1371.52327        45.70027
E08  26586806.85826     -3088.99026        40.10026
E27  25265296.22028      1364.28128        49.30028
E29  25808682.64227      1394.41927        46.50027
E30  23709942.37028      -517.51228        47.90028
E34  26783834.95826      2243.86126        36.10026
E36  27386943.03528       230.79528        51.50028
> 2025 11 28 23 28 16.4429863  0 24                      
G01  23661755.82828       246.70028        50.20028
G02  25114848.97329     -2009.25029        53.90029
G07  23660433.74428     -2912.30028        49.30028
G13  20960742.10127     -1109.20027        45.60027
G14  20669786.62627      -986.80027        44.50027
G15  22335284.22628      -181.30028        48.10028
G17  20378012.71628       376.40028        47.70028
G19  21043322.93227      2231.30027        41.50027
G22  20812230.31427      -556.60027        46.10027
G30  21572278.54327     -2200.85027        44.10027
R06  21661216.17326     -1642.85026        39.40026
R18  20698315.77526      2910.70026        39.80026
R16  20217590.77428       963.00028        50.40028
R15  21126331.56628     -1659.80028        52.60028
R05  23470310.76328     -4231.40028        53.20028
R17  20769690.36428      -676.15028        51.20028
R07  22682986.51628      1608.55028        47.50028
E07  24218322.02627     -1364.99627        45.10027
E08  26587392.35226     -3082.06426        40.10026
E27  25265034.20228      1371.17828        49.50028
E29  25808417.02627      1401.07027        46.40027
E30  23710039.50228      -510.62928        47.90028
E34  26783406.25526      2250.21326        36.50026
E36  27386899.86528       237.34828        52.10028
> 2025 11 28 23 28 17.4429863  0 24                      
G01  23661707.56228       266.85128        49.80028
G02  25115230.60928     -1989.10728        53.40028
G07  23660988.36028     -2892.07728        49.30028
G13  20960953.45527     -1089.83627        45.40027
G14  20669967.40027      -966.43327        44.50027
G15  22335313.90528      -161.67528        47.90028
G17  20377938.96827       395.83727        47.20027
G19  21042899.92526      2250.86526        40.90026
G22  20812331.94427      -536.23827        46.00027
G30  21572695.85527     -2180.72527        43.90027
R06  21661533.65326     -1622.95726        38.70026
R18  20697761.15926      2930.65026        40.10026
R16  20217413.29728       983.52328        50.20028
R15  21126644.25028     -1639.64128        51.80028
R05  23471099.21728     -4210.72328        52.60028
R17  20769815.37728      -656.29328        51.30028
R07  22682677.43027      1628.75627        47.20027
E07  24218578.94827     -1345.07927        45.50027
E08  26587978.74626     -3061.86526        40.20026
E27  25264769.78528      1391.38728        49.10028
E29  25808147.21327      1421.03227        46.00027
E30  23710134.53728      -490.41428        47.70028
E34  26782973.95426      2270.13926        35.60026
E36  27386851.29828       257.17628        51.60028
> 2025 11 28 23 28 18.4429863  0 24                      
G01  23661657.19728       274.36828        49.60028
G02  25115607.14828     -1981.73128        53.30028
G07  23661535.78128     -2884.30428        49.10028
G13  20961153.41727     -1082.58427        44.90027
G14  20670149.07527      -958.65227        44.70027
G15  22335340.88628      -154.09028        47.80028
G17  20377864.01927       403.21127        47.20027
G19  21042469.72226      2258.30126        40.80026
G22  20812436.87127      -528.56627        45.70027
G30  21573111.06727     -2173.33627        43.40027
R06  21661823.85226     -1615.88326        39.70026
R18  20697204.74426      2938.13426        39.90026
R16  20217231.02328       991.36828        50.50028
R15  21126950.03828     -1631.90728        52.30028
R05  23471884.37428     -4202.56428        53.00028
R17  20769937.99228      -649.18728        51.30028
R07  22682372.24227      1636.27527        47.20027
E07  24218832.57227     -1338.49027        45.00027
E08  26588564.24126     -3054.85526        40.10026
E27  25264508.06628      1398.20928        49.10028
E29  25807876.80027      1427.48827        45.80027
E30  23710227.47228      -483.72728        47.70028
E34  26782544.95126      2278.62626        35.90026
E36  27386801.83328       263.77628        51.50028
> 2025 11 28 23 28 19.4429863  0 24                      
G01  23661610.72928       234.95028        50.00028
G02  25115989.98328     -2020.90028        52.90028
G07  23662090.39728     -2923.45028        49.20028
G13  20961368.36827     -1122.00027        45.40027
G14  20670340.94227      -996.90027        44.50027
G15  22335378.66028      -194.00028        48.00028
G17  20377790.57027       364.50027        46.90027
G19  21042033.52426      2219.80026        40.30026
G22  20812542.99727      -567.20027        46.30027
G30  21573526.87927     -2211.50027        44.00027
R06  21662152.42526     -1654.95026        39.60026
R18  20696656.12426      2897.95026        40.50026
R16  20217042.45428       952.40028        50.70028
R15  21127261.22328     -1671.25028        52.70028
R05  23472678.52428     -4242.00028        53.30028
R17  20770063.60528      -689.45028        52.10028
R07  22682069.75127      1594.95027        47.20027
E07  24219091.89327     -1375.92727        45.30027
E08  26589146.73826     -3092.00426        40.30026
E27  25264245.74828      1361.13928        49.40028
E29  25807610.58427      1390.13827        46.10027
E30  23710323.10628      -520.76528        47.60028
E34  26782120.14526      2240.40026        36.60026
E36  27386756.86428       226.38928        50.80028
> 2025 11 28 23 28 20.4429863  0 24                      
G01  23661568.75828       214.89128        50.50028
G02  25116375.81628     -2041.37728        53.20028
G07  23662648.01128     -2943.13828        48.90028
G13  20961585.41727     -1141.89827        45.70027
G14  20670533.40927     -1016.66227        44.70027
G15  22335413.73628      -213.92428        48.10028
G17  20377719.51928       345.01028        47.70028
G19  21041610.21726      2199.30526        40.20026
G22  20812653.32127      -587.03627        46.40027
G30  21573948.98727     -2232.16227        43.50027
R06  21662439.32626     -1676.32526        39.50026
R18  20696103.60726      2877.83426        41.00026
R16  20216875.46928       933.04028        51.00028
R15  21127576.00528     -1691.29328        52.80028
R05  23473471.47529     -4261.81829        53.60029
R17  20770197.91228      -710.02428        52.60028
R07  22681786.74728      1575.28128        48.00028
E07  24219354.21127     -1395.30727        45.10027
E08  26589737.92926     -3111.07126        41.10026
E27  25263989.42528      1341.95628        49.60028
E29  25807347.06627      1370.76427        46.00027
E30  23710423.83628      -539.82028        47.60028
E34  26781700.73526      2220.67526        35.90026
E36  27386716.39228       206.79428        50.10028
> 2025 11 28 23 28 21.4429863  0 24                      
G01  23661528.28628       218.15028        49.60028
G02  25116761.64929     -2037.50029        53.70029
G07  23663205.62528     -2939.40028        49.30028
G13  20961801.56827     -1138.75027        45.50027
G14  20670721.67827     -1013.75027        44.70027
G15  22335454.50828      -210.60028        47.80028
G17  20377648.16927       345.90627        47.00027
G19  21041197.40326      2202.90026        40.40026
G22  20812764.54427      -582.90027        46.20027
G30  21574373.49327     -2228.30027        43.70027
R06  21662749.61226     -1673.35026        39.40026
R18  20695559.78326      2881.65026        39.90026
R16  20216693.79528       934.43328        50.60028
R15  21127894.98428     -1687.40028        52.70028
R05  23474268.32328     -4258.10028        53.20028
R17  20770328.92228      -706.90028        52.10028
R07  22681491.15228      1578.40028        47.50028
E07  24219619.82727     -1393.07827        44.80027
E08  26590330.31826     -3108.59226        40.50026
E27  25263733.70228      1344.48428        49.40028
E29  25807088.04627      1373.02327        46.10027
E30  23710523.66728      -537.28628        47.60028
E34  26781266.33626      2223.27426        36.60026
E36  27386675.92028       208.99928        51.40028
> 2025 11 28 23 28 22.4429863  0 24                      
G01  23661486.61528       230.70028        49.30028
G02  25117149.88029     -2024.70029        53.50029
G07  23663770.73428     -2926.90028        49.20028
G13  20962017.41827     -1126.35027        45.50027
G14  20670918.94227     -1001.20027        44.80027
G15  22335494.08028      -198.60028        48.00028
G17  20377583.71327       359.75027        46.80027
G19  21040776.49526      2214.75026        40.30026
G22  20812873.36927      -570.20027        46.00027
G30  21574797.40027     -2215.60027        44.00027
R06  21663073.08826     -1661.15026        39.80026
R18  20695015.66026      2892.55026        39.90026
R16  20216516.31828       948.35028        50.40028
R15  21128210.06629     -1674.15029        53.50029
R05  23475060.07528     -4244.55028        53.10028
R17  20770460.23128      -694.70028        52.00028
R07  22681194.65727      1591.45027        47.30027
E07  24219882.44527     -1380.21527        44.60027
E08  26590917.61226     -3095.32326        40.30026
E27  25263471.98328      1357.61128        49.40028
E29  25806823.32927      1385.85327        46.20027
E30  23710628.59427      -524.12927        47.30027
E34  26780852.32326      2236.19126        36.60026
E36  27386633.05028       221.78928        51.00028
> 2025 11 28 23 28 23.4429863  0 24                      
G01  23661439.24828       258.05028        49.30028
G02  25117534.21428     -1997.40028        53.30028
G07  23664319.95328     -2899.02428        49.30028
G13  20962230.87127     -1099.20027        45.50027
G14  20671107.21127      -973.20027        44.70027
G15  22335531.55428      -171.05028        48.00028
G17  20377512.36327       386.65027        46.70027
G19  21040356.18626      2242.70026        40.50026
G22  20812976.79727      -543.20027        45.80027
G30  21575215.61027     -2189.20027        44.30027
R06  21663371.38126     -1632.60026        39.50026
R18  20694478.73226      2922.10026        40.00026
R16  20216329.54728       976.95028        50.10028
R15  21128519.75129     -1646.55029        53.80029
R05  23475852.42728     -4216.09528        53.00028
R17  20770584.94428      -667.15028        51.80028
R07  22680892.16627      1617.95027        47.00027
E07  24220140.56727     -1352.96627        44.50027
E08  26591504.30626     -3067.75826        40.50026
E27  25263211.46428      1385.19028        49.40028
E29  25806556.21427      1413.25527        46.30027
E30  23710722.72927      -496.59327        47.40027
E34  26780417.62426      2263.50826        36.10026
E36  27386590.47928       249.05028        50.70028
> 2025 11 28 23 28 24.4429863  0 24                      
G01  23661387.08428       263.49928        49.40028
G02  25117912.55228     -1991.89828        53.20028
G07  23664871.27228     -2893.30028        49.10028
G13  20962440.72527     -1093.81827        45.20027
G14  20671289.48527      -967.36127        44.50027
G15  22335561.83328      -165.52028        47.70028
G17  20377441.31227       392.25227        46.80027
G19  21039926.58326      2248.27526        40.60026
G22  20813077.82727      -537.16827        45.60027
G30  21575628.42427     -2183.12327        44.20027
R06  21663685.56426     -1627.81426        39.70026
R18  20693927.41326      2926.66426        39.80026
R16  20216139.17928       982.77828        50.10028
R15  21128819.24429     -1640.51229        54.00029
R05  23476638.78228     -4209.94728        53.20028
R17  20770707.26028      -662.02428        51.90028
R07  22680585.77827      1624.00127        46.50027
E07  24220398.08827     -1346.96927        44.20027
E08  26592089.50126     -3060.64526        40.50026
E27  25262947.94628      1392.44228        49.40028
E29  25806286.10127      1420.07727        46.20027
E30  23710817.76427      -489.50027        47.10027
E34  26779985.62326      2269.76526        37.20026
E36  27386541.01328       256.03128        50.40028
> 2025 11 28 23 28 25.4429863  0 24                      
G01  23661340.31628       219.65028        49.90028
G02  25118294.18828     -2035.70028        53.40028
G07  23665427.08728     -2936.95028        49.20028
G13  20962649.38127     -1137.40027        45.00027
G14  20671480.15327     -1009.60027        44.90027
G15  22335597.20928      -209.80028        47.60028
G17  20377371.76027       348.40027        46.80027
G19  21039513.16927      2204.30027        41.50027
G22  20813180.95627      -580.10027        46.00027
G30  21576052.93027     -2226.55027        44.60027
R06  21663992.85126     -1671.70026        40.00026
R18  20693358.10726      2883.80026        39.70026
R16  20215962.90128       938.60028        50.10028
R15  21129136.42429     -1684.30029        54.20029
R05  23477432.33328     -4254.20028        52.90028
R17  20770831.97328      -706.95028        51.80028
R07  22680282.38827      1578.75027        46.60027
E07  24220660.70727     -1390.80027        44.20027
E08  26592674.09626     -3105.30026        40.20026
E27  25262689.82528      1348.10028        49.10028
E29  25806025.28227      1375.35027        46.10027
E30  23710916.69527      -533.75027        47.40027
E34  26779563.81526      2226.80026        36.90026
E36  27386497.24428       211.05028        50.50028
> 2025 11 28 23 28 26.4429863  0 24                      
G01  23661306.73928       197.02528        49.50028
G02  25118684.81728     -2057.90128        53.10028
G07  23665985.90028     -2959.11528        49.30028
G13  20962864.63227     -1159.57427        44.90027
G14  20671671.72127     -1032.39427        44.80027
G15  22335639.48028      -231.76728        47.50028
G17  20377303.70727       326.45427        46.80027
G19  21039097.35727      2182.71327        42.20027
G22  20813294.57727      -602.16927        45.60027
G30  21576473.83927     -2248.34927        44.20027
R06  21664311.53026     -1694.70926        40.30026
R18  20692838.86726      2859.95626        39.40026
R16  20215796.51628       916.68228        50.30028
R15  21129456.00329     -1706.46329        54.30029
R05  23478231.28028     -4276.37228        53.20028
R17  20770968.07928      -729.50728        52.10028
R07  22679994.28827      1556.42527        47.10027
E07  24220926.62327     -1411.71127        44.20027
E08  26593265.28726     -3125.56126        40.60026
E27  25262434.70128      1327.26528        49.40028
E29  25805760.56527      1354.50327        46.10027
E30  23711018.02527      -554.50227        47.40027
E34  26779142.60626      2205.55726        37.40026
E36  27386459.17028       190.17328        50.60028
> 2025 11 28 23 28 27.4429863  0 24                      
G01  23661263.56928       207.70028        49.30028
G02  25119075.74728     -2047.70028        53.10028
G07  23666548.31128     -2948.50028        48.90028
G13  20963080.18327     -1149.95027        45.00027
G14  20671865.08727     -1022.65027        45.00027
G15  22335683.84928      -221.85028        47.70028
G17  20377240.45127       336.50027        46.50027
G19  21038680.64627      2192.55027        42.10027
G22  20813409.39827      -591.75027        46.20027
G30  21576905.24027     -2238.40027        44.40027
R06  21664620.01726     -1684.05026        40.00026
R18  20692314.53026      2869.50026        39.30026
R16  20215628.93228       926.85028        50.60028
R15  21129775.88229     -1696.25029        54.70029
R05  23479025.73028     -4265.00028        53.10028
R17  20771111.08028      -719.75028        52.20028
R07  22679695.69427      1566.30027        47.00027
E07  24221193.13827     -1402.59227        44.00027
E08  26593860.97426     -3115.94526        40.50026
E27  25262180.47728      1336.67928        49.20028
E29  25805505.14227      1363.64527        45.90027
E30  23711123.55227      -545.05727        47.00027
E34  26778722.29726      2214.95226        37.60026
E36  27386421.69628       199.23528        50.60028
> 2025 11 28 23 28 28.4429863  0 24                      
G01  23661220.69928       229.35028        49.70028
G02  25119462.77929     -2025.15029        53.50029
G07  23667106.22428     -2926.10028        48.80028
G13  20963297.53227     -1127.55027        44.80027
G14  20672056.35427     -1000.70027        45.00027
G15  22335719.82427      -200.00027        47.40027
G17  20377174.19727       357.95027        46.80027
G19  21038259.73727      2215.30027        42.90027
G22  20813520.62127      -569.90027        46.20027
G30  21577328.84727     -2216.55027        44.60027
R06  21664935.09926     -1663.40026        40.10026
R18  20691768.90826      2891.30026        39.70026
R16  20215452.35528       949.35028        50.50028
R15  21130086.76629     -1673.60029        54.60029
R05  23479824.37728     -4242.35028        53.20028
R17  20771242.98928      -697.40028        52.20028
R07  22679400.39927      1588.20027        46.90027
E07  24221456.05627     -1380.80627        44.10027
E08  26594453.66426     -3093.86926        40.60026
E27  25261922.35628      1358.76128        49.50028
E29  25805239.52627      1385.46127        45.80027
E30  23711223.38327      -522.99627        46.90027
E34  26778294.19426      2236.88226        37.70026
E36  27386380.92428       220.99928        50.60028
> 2025 11 28 23 28 29.4429863  0 24                      
G01  23661177.52928       250.29528        49.40028
G02  25119848.31228     -2004.27728        53.20028
G07  23667660.24128     -2904.96528        49.00028
G13  20963514.58227     -1107.05027        45.20027
G14  20672246.72227      -978.66827        45.00027
G15  22335756.39928      -179.38728        47.50028
G17  20377104.94527       378.98627        46.70027
G19  21037835.53127      2235.75027        42.90027
G22  20813631.24427      -548.45727        46.40027
G30  21577752.45427     -2195.17627        44.70027
R06  21665248.38226     -1641.78626        40.30026
R18  20691223.58526      2913.20026        39.90026
R16  20215264.08528       971.35928        50.40028
R15  21130392.85529     -1651.77429        54.70029
R05  23480615.22928     -4220.42328        53.40028
R17  20771369.50128      -676.78028        52.20028
R07  22679097.60927      1609.47627        47.30027
E07  24221716.57627     -1359.71127        44.40027
E08  26595038.25926     -3072.39526        40.50026
E27  25261660.93728      1380.15428        49.50028
E29  25804975.10927      1406.60527        45.90027
E30  23711320.81527      -501.59127        47.10027
E34  26777870.28726      2257.80926        37.90026
E36  27386333.85728       242.08328        50.50028
> 2025 11 28 23 28 30.4429863  0 24                      
G01  23661129.86228       249.80728        49.50028
G02  25120226.95028     -2004.85728        53.20028
G07  23668212.45928     -2905.12828        48.80028
G13  20963732.23127     -1107.90527        45.10027
G14  20672426.29827      -978.95127        44.90027
G15  22335789.37627      -179.78427        47.30027
G17  20377030.29727       378.40727        46.60027
G19  21037413.12327      2235.19227        42.90027
G22  20813734.07327      -548.74827        46.40027
G30  21578166.16827     -2195.13127        44.60027
R06  21665569.45926     -1641.99126        40.00026
R18  20690681.56026      2912.47426        39.10026
R16  20215091.10528       971.15328        50.40028
R15  21130703.14029     -1652.13629        54.90029
R05  23481404.88328     -4220.33428        53.10028
R17  20771499.01228      -677.80328        52.20028
R07  22678799.61527      1608.90227        47.40027
E07  24221977.39527     -1361.12927        44.00027
E08  26595620.45626     -3071.19126        40.50026
E27  25261400.41728      1379.00228        49.30028
E29  25804706.19527      1405.06827        45.30027
E30  23711417.04927      -502.87027        46.60027
E34  26777438.58626      2259.49426        37.60026
E36  27386291.88628       240.64828        50.50028
> 2025 11 28 23 28 31.4429863  0 24                      
G01  23661087.29128       208.95028        49.80028
G02  25120612.18328     -2045.85028        53.00028
G07  23668770.37228     -2946.20028        48.90028
G13  20963952.27927     -1149.10027        45.70027
G14  20672620.56427     -1019.40027        45.20027
G15  22335834.04527      -221.40027        46.90027
G17  20376962.84327       337.85027        46.60027
G19  21036990.71527      2194.00027        43.00027
G22  20813847.39427      -589.20027        46.20027
G30  21578593.67227     -2236.45027        44.70027
R06  21665873.74926     -1684.00026        40.10026
R18  20690120.04926      2871.00026        38.60026
R16  20214918.42428       929.70028        50.50028
R15  21131019.72129     -1693.25029        55.20029
R05  23482201.73129     -4261.25029        53.50029
R17  20771621.32728      -719.60028        52.20028
R07  22678511.21428      1566.95028        47.50028
E07  24222241.81227     -1400.50127        44.10027
E08  26596212.84626     -3112.75026        40.60026
E27  25261143.49528      1339.95128        49.30028
E29  25804443.57727      1365.78227        46.00027
E30  23711518.37927      -541.91027        47.10027
E34  26777017.37826      2216.80026        38.90026
E36  27386249.61528       201.25928        50.40028
> 2025 11 28 23 28 32.4429863  0 24                      
G01  23661049.51728       192.34928        49.50028
G02  25121003.11328     -2061.79328        53.00028
G07  23669332.48328     -2961.95128        48.60028
G13  20964168.72927     -1164.78827        45.60027
G14  20672817.52727     -1035.05127        45.00027
G15  22335875.11728      -237.74128        47.90028
G17  20376898.98727       321.42327        46.80027
G19  21036582.09827      2178.08927        43.60027
G22  20813964.01427      -604.85627        46.40027
G30  21579020.87627     -2252.67927        45.10027
R06  21666182.83526     -1701.16726        40.10026
R18  20689570.52926      2854.64526        38.20026
R16  20214739.14828       914.07028        50.20028
R15  21131336.30129     -1709.02729        55.20029
R05  23483000.97828     -4277.57628        53.30028
R17  20771761.33028      -736.27328        52.00028
R07  22678215.02027      1549.78027        47.40027
E07  24222509.82627     -1417.86027        44.10027
E08  26596806.13526     -3129.60426        40.10026
E27  25260888.67228      1322.75228        49.30028
E29  25804184.25627      1348.35927        45.80027
E30  23711623.90527      -558.96127        46.80027
E34  26776597.36826      2199.99326        38.60026
E36  27386213.94028       183.69328        50.30028
> 2025 11 28 23 28 33.4429863  0 24                      
G01  23661006.64728       214.55028        50.00028
G02  25121392.24328     -2039.50028        52.90028
G07  23669890.39728     -2939.45028        48.80028
G13  20964387.57827     -1144.05027        46.00027
G14  20673015.69027     -1013.85027        45.20027
G15  22335917.08728      -215.90028        48.30028
G17  20376834.53227       343.20027        46.60027
G19  21036162.98927      2200.20027        43.60027
G22  20814076.43627      -582.60027        46.40027
G30  21579448.68027     -2230.65027        45.20027
R06  21666501.21426     -1679.30026        39.80026
R18  20689056.08626      2875.70026        38.00026
R16  20214559.87328       936.45028        50.10028
R15  21131656.18029     -1686.55029        55.20029
R05  23483789.43228     -4254.50028        53.20028
R17  20771898.33528      -714.90028        52.00028
R07  22677921.22328      1572.65028        47.50028
E07  24222777.54127     -1395.70027        44.20027
E08  26597396.42726     -3106.45026        40.80026
E27  25260633.84828      1345.80028        49.30028
E29  25803923.13727      1371.35027        46.00027
E30  23711722.83727      -535.55027        46.80027
E34  26776173.76226      2225.40026        38.70026
E36  27386172.86828       206.80028        50.40028
> 2025 11 28 23 28 34.4429863  0 24                      
G01  23660969.17328       233.00028        49.80028
G02  25121778.37628     -2020.70028        52.90028
G07  23670453.10728     -2919.85028        49.00028
G13  20964604.92727     -1123.90027        46.10027
G14  20673207.25827      -993.95027        45.70027
G15  22335957.85928      -197.10028        48.20028
G17  20376767.37927       362.05027        46.60027
G19  21035737.88327      2219.40027        44.00027
G22  20814183.46227      -563.70027        46.50027
G30  21579867.49027     -2211.00027        45.20027
R06  21666814.49826     -1660.00026        39.70026
R18  20688513.16126      2897.00026        38.00026
R16  20214382.39528       956.20028        50.30028
R15  21131964.96629     -1666.85029        55.30029
R05  23484593.17629     -4234.75029        53.60029
R17  20772031.74328      -695.20028        52.10028
R07  22677629.52528      1590.95028        47.50028
E07  24223042.25827     -1375.59627        44.40027
E08  26597985.81926     -3086.71826        40.40026
E27  25260377.22628      1365.66328        49.40028
E29  25803662.01827      1390.71627        45.80027
E30  23711823.26727      -516.15827        47.00027
E34  26775746.85726      2243.21626        39.30026
E36  27386132.09628       225.89928        50.50028
> 2025 11 28 23 28 35.4429863  0 24                      
G01  23660922.70528       248.37628        49.60028
G02  25122161.21128     -2005.44128        52.80028
G07  23671002.62728     -2905.00928        49.10028
G13  20964816.88027     -1109.47827        46.20027
G14  20673394.32827      -978.49527        45.80027
G15  22335991.13628      -181.92628        48.50028
G17  20376702.02427       376.87327        46.70027
G19  21035313.97627      2234.51527        43.70027
G22  20814289.88827      -548.26327        46.40027
G30  21580291.09627     -2196.06027        45.20027
R06  21667119.38626     -1644.77526        39.10026
R18  20687989.12426      2910.80126        38.00026
R16  20214200.12228       971.72828        50.00028
R15  21132276.75029     -1651.40629        55.70029
R05  23485380.73029     -4218.70929        53.80029
R17  20772161.25328      -680.65028        52.30028
R07  22677334.82928      1606.29628        47.50028
E07  24223300.67927     -1360.76727        44.50027
E08  26598570.71426     -3071.45026        40.80026
E27  25260113.40828      1380.80928        49.20028
E29  25803395.50227      1405.61627        45.60027
E30  23711917.70227      -500.94527        46.80027
E34  26775322.35126      2257.97426        39.70026
E36  27386088.02728       240.74928        50.10028
> 2025 11 28 23 28 36.4429863  0 24                      
G01  23660875.33828       254.43128        49.60028
G02  25122541.04828     -1999.48928        52.60028
G07  23671555.74428     -2898.65728        48.90028
G13  20965027.93427     -1103.68127        46.00027
G14  20673581.39927      -972.26927        46.00027
G15  22336025.31328      -175.76528        48.50028
G17  20376630.07427       382.80227        46.80027
G19  21034886.77227      2240.46227        44.00027
G22  20814391.81727      -542.03727        46.40027
G30  21580704.81027     -2190.16527        45.00027
R06  21667437.16626     -1638.52626        38.70026
R18  20687421.61726      2916.78226        37.60026
R16  20214023.84428       978.14128        50.10028
R15  21132589.13429     -1645.14829        55.70029
R05  23486170.98329     -4212.01829        53.90029
R17  20772284.16828      -675.02228        52.20028
R07  22677034.73727      1612.30227        47.40027
E07  24223558.20127     -1355.64827        44.20027
E08  26599154.70926     -3065.98026        40.80026
E27  25259851.98928      1386.19628        49.10028
E29  25803129.58627      1410.63327        45.90027
E30  23712016.33427      -495.68227        46.60027
E34  26774894.24826      2263.08326        39.50026
E36  27386039.16128       245.87028        50.50028
> 2025 11 28 23 28 37.4429863  0 24                      
G01  23660828.87028       216.40028        49.70028
G02  25122926.28128     -2037.60028        52.50028
G07  23672116.95628     -2936.40028        49.20028
G13  20965244.38427     -1142.10027        45.90027
G14  20673770.56827     -1009.85027        45.70027
G15  22336060.98828      -214.20028        48.40028
G17  20376561.42127       344.75027        46.70027
G19  21034457.16927      2202.60027        44.00027
G22  20814493.74727      -578.70027        46.50027
G30  21581123.32027     -2227.85027        44.60027
R06  21667728.86526     -1677.40026        38.80026
R18  20686872.09825      2879.20025        35.10025
R16  20213842.46928       940.05028        50.40028
R15  21132899.41929     -1682.80029        55.50029
R05  23486966.63229     -4250.30029        53.90029
R17  20772413.37928      -713.95028        51.90028
R07  22676732.54627      1573.65027        47.40027
E07  24223822.31827     -1391.87427        44.70027
E08  26599742.60226     -3101.89426        40.60026
E27  25259590.27128      1350.26428        48.80028
E29  25802863.97027      1374.46627        45.40027
E30  23712111.96827      -531.56327        46.50027
E34  26774464.34526      2227.22726        39.70026
E36  27385999.28828       209.57528        50.20028
> 2025 11 28 23 28 38.4429863  0 24                      
G01  23660792.59528       197.99128        49.90028
G02  25123314.51228     -2055.46428        52.40028
G07  23672673.67028     -2954.44428        49.30028
G13  20965455.13927     -1159.45727        45.60027
G14  20673964.23327     -1027.17427        45.80027
G15  22336110.75328      -231.98928        48.60028
G17  20376500.26427       327.05327        46.70027
G19  21034045.55427      2185.09927        44.30027
G22  20814609.46727      -596.94827        46.40027
G30  21581544.82927     -2245.29327        44.40027
R06  21668056.83726     -1695.86626        38.80026
R18  20686318.68126      2860.08126        35.60026
R16  20213669.48928       922.28528        50.30028
R15  21133218.39829     -1700.87329        55.60029
R05  23487762.88129     -4268.13029        54.10029
R17  20772541.69028      -732.23928        52.10028
R07  22676439.94827      1554.33827        47.20027
E07  24224090.33227     -1408.88627        44.60027
E08  26600331.69526     -3118.55826        40.60026
E27  25259336.94628      1333.48328        48.80028
E29  25802605.24927      1357.51627        45.70027
E30  23712217.19527      -548.25027        46.80027
E34  26774042.23726      2210.69826        39.60026
E36  27385962.41428       192.46128        50.50028
> 2025 11 28 23 28 39.4429863  0 24                      
G01  23660754.22228       208.25028        49.60028
G02  25123701.84428     -2045.00028        52.60028
G07  23673233.98228     -2943.45028        49.30028
G13  20965676.98527     -1149.55027        46.10027
G14  20674163.29627     -1017.10027        46.00027
G15  22336153.02428      -222.40028        48.60028
G17  20376438.20627       336.90027        46.90027
G19  21033626.74427      2194.80027        44.10027
G22  20814721.28927      -587.40027        46.40027
G30  21581975.33027     -2235.55027        44.80027
R06  21668379.41426     -1685.45026        38.40026
R18  20685776.65625      2870.10025        35.20025
R16  20213494.71028       932.25028        50.30028
R15  21133534.67929     -1690.75029        55.60029
R05  23488561.22929     -4257.00029        54.00029
R17  20772688.88828      -722.35028        52.50028
R07  22676150.94827      1564.15027        47.00027
E07  24224354.44927     -1400.14727        44.30027
E08  26600928.58126     -3109.50126        40.90026
E27  25259078.82528      1342.55528        49.00028
E29  25802344.43027      1366.28627        45.80027
E30  23712315.52727      -539.19627        46.60027
E34  26773618.93026      2219.87226        39.60026
E36  27385920.74328       201.20828        50.50028
> 2025 11 28 23 28 40.4429863  0 24                      
G01  23660713.15028       217.85028        50.20028
G02  25124087.67728     -2035.75028        52.40028
G07  23673795.19428     -2934.45028        49.40028
G13  20965895.83327     -1140.80027        46.20027
G14  20674352.76527     -1007.80027        46.30027
G15  22336191.99728      -213.65028        48.60028
G17  20376372.25227       346.55027        47.00027
G19  21033210.33327      2204.50027        44.30027
G22  20814832.51227      -577.70027        46.90027
G30  21582405.53327     -2226.05027        44.60027
R06  21668698.99326     -1677.45026        38.70026
R18  20685262.21225      2878.95025        35.40025
R16  20213322.92928       942.10028        50.30028
R15  21133854.85829     -1680.95029        55.40029
R05  23489354.47929     -4247.30029        54.00029
R17  20772825.59328      -713.80028        52.40028
R07  22675858.35127      1573.30027        47.10027
E07  24224620.96527     -1390.96427        44.50027
E08  26601515.87526     -3099.89326        40.80026
E27  25258824.60128      1352.09528        49.10028
E29  25802083.61027      1375.58027        46.00027
E30  23712420.45427      -529.65227        46.60027
E34  26773196.22326      2229.09026        39.50026
E36  27385885.66728       210.39028        50.40028
> 2025 11 28 23 28 41.4429863  0 24                      
G01  23660667.88228       242.68528        50.00028
G02  25124474.70928     -2010.38428        52.20028
G07  23674350.11028     -2908.86328        49.60028
G13  20966109.88527     -1115.85027        45.90027
G14  20674541.63427      -982.10727        46.00027
G15  22336229.17128      -188.23928        48.90028
G17  20376301.50127       370.94527        46.90027
G19  21032788.22527      2230.30027        44.30027
G22  20814937.74027      -551.95027        46.80027
G30  21582825.84227     -2200.72127        44.60027
R06  21668996.98726     -1651.20026        38.10026
R18  20684710.59426      2906.25026        36.90026
R16  20213140.35528       968.14928        50.40028
R15  21134163.94429     -1654.95029        55.20029
R05  23490145.03229     -4220.95329        53.70029
R17  20772954.50428      -688.38928        52.20028
R07  22675560.05827      1599.35027        46.60027
E07  24224882.38427     -1365.62827        44.70027
E08  26602103.46826     -3074.23726        41.00026
E27  25258563.78128      1377.68128        49.20028
E29  25801819.49327      1400.89227        46.00027
E30  23712519.38627      -504.04227        46.30027
E34  26772768.41926      2254.29226        39.10026
E36  27385840.39828       235.63128        50.30028
> 2025 11 28 23 28 42.4429863  0 24                      
G01  23660621.71428       253.31428        49.20028
G02  25124855.14628     -1999.81528        52.20028
G07  23674902.02728     -2897.87728        49.60028
G13  20966326.03627     -1105.25427        46.20027
G14  20674727.20527      -971.25527        46.20027
G15  22336266.64528      -177.45528        48.60028
G17  20376229.85127       381.49127        46.40027
G19  21032366.41727      2240.09127        44.40027
G22  20815039.96927      -541.02927        46.80027
G30  21583243.45327     -2190.18027        44.70027
R06  21669305.17326     -1641.16526        37.90026
R18  20684201.24726      2915.22926        37.60026
R16  20212960.48028       979.27228        50.60028
R15  21134472.73029     -1643.95729        55.50029
R05  23490929.28929     -4209.49929        54.00029
R17  20773084.61428      -678.02128        52.60028
R07  22675266.26127      1609.99227        47.40027
E07  24225141.40527     -1355.90527        44.50027
E08  26602687.16426     -3064.21326        40.70026
E27  25258300.86328      1387.66828        49.20028
E29  25801553.27727      1410.56027        46.00027
E30  23712613.82027      -494.20827        45.90027
E34  26772340.01626      2263.92326        38.70026
E36  27385796.02928       245.36028        50.60028
> 2025 11 28 23 28 43.4429863  0 24                      
G01  23660576.14528       220.35028        50.60028
G02  25125240.37928     -2031.80028        52.00028
G07  23675456.04428     -2929.40028        49.70028
G13  20966539.18827     -1137.45027        46.10027
G14  20674911.87727     -1002.90027        46.00027
G15  22336304.71928      -209.65028        48.90028
G17  20376163.89627       349.80027        47.10027
G19  21031946.70727      2208.45027        44.90027
G22  20815144.29727      -572.05027        46.90027
G30  21583660.16427     -2221.60027        44.70027
R06  21669618.15726     -1673.70026        38.30026
R18  20683654.42526      2883.05026        38.40026
R16  20212774.90828       947.80028        50.60028
R15  21134786.01329     -1676.00029        55.70029
R05  23491730.33529     -4241.70029        53.90029
R17  20773213.52528      -710.60028        52.70028
R07  22674964.37027      1577.15027        47.20027
E07  24225401.02527     -1386.10327        44.70027
E08  26603272.65926     -3094.04926        40.70026
E27  25258040.34428      1357.78328        49.20028
E29  25801288.56127      1380.35527        46.10027
E30  23712710.95327      -524.07227        46.10027
E34  26771912.51226      2234.17526        38.40026
E36  27385752.25928       215.10728        51.80028
> 2025 11 28 23 28 44.4429863  0 24                      
G01  23660536.87228       202.91228        50.10028
G02  25125628.31128     -2049.82228        52.20028
G07  23676015.15728     -2947.65028        49.90028
G13  20966754.43927     -1155.45427        46.10027
G14  20675108.24227     -1020.63427        45.70027
G15  22336344.89128      -228.19428        49.00028
G17  20376096.74327       331.30927        46.90027
G19  21031526.99827      2190.24427        44.90027
G22  20815259.71727      -590.40027        46.70027
G30  21584080.77327     -2240.94427        44.20027
R06  21669927.24326     -1692.32726        38.50026
R18  20683134.58526      2864.09726        39.40026
R16  20212606.12528       929.00528        50.70028
R15  21135101.39529     -1694.14129        55.20029
R05  23492518.18929     -4259.58129        54.10029
R17  20773347.23228      -729.65428        52.80028
R07  22674663.37827      1558.09527        46.90027
E07  24225666.64127     -1404.61227        44.70027
E08  26603859.35326     -3112.28126        41.10026
E27  25257781.92328      1339.41528        49.30028
E29  25801025.64327      1361.81527        45.80027
E30  23712812.28327      -542.28427        46.10027
E34  26771484.40826      2216.15126        39.00026
E36  27385714.78528       196.45128        51.20028
> 2025 11 28 23 28 45.4429863  0 24                      
G01  23660499.99828       203.62428        50.10028
G02  25126020.43928     -2048.94728        52.00028
G07  23676574.86928     -2946.63428        49.80028
G13  20966976.58527     -1154.28627        46.10027
G14  20675297.71027     -1019.00127        45.60027
G15  22336389.86028      -226.98828        48.70028
G17  20376029.58927       332.51027        46.90027
G19  21031109.08727      2191.63227        44.60027
G22  20815370.94027      -588.78927        46.50027
G30  21584508.27727     -2237.45027        44.00027
R06  21670259.11326     -1691.18626        38.00026
R18  20682599.45526      2865.38626        39.80026
R16  20212432.54528       930.70628        50.70028
R15  21135412.28029     -1692.38229        54.90029
R05  23493322.53229     -4258.21429        54.20029
R17  20773479.44128      -728.64428        52.90028
R07  22674371.68027      1558.68527        47.30027
E07  24225934.05627     -1402.13727        44.90027
E08  26604454.74026     -3109.39626        41.10026
E27  25257527.09928      1342.25928        49.40028
E29  25800765.42327      1364.33827        46.00027
E30  23712914.21227      -539.48327        46.00027
E34  26771065.59826      2218.88126        38.70026
E36  27385674.31328       198.92628        50.70028
> 2025 11 28 23 28 46.4429863  0 24                      
G01  23660457.12728       219.55028        49.80028
G02  25126404.17328     -2032.65028        51.90028
G07  23677135.18128     -2930.40028        49.30028
G13  20967197.23227     -1139.15027        46.60027
G14  20675488.07927     -1003.60027        45.90027
G15  22336428.83328      -211.90028        48.80028
G17  20375969.03127       347.60027        46.80027
G19  21030693.27527      2207.25027        44.70027
G22  20815482.46227      -572.95027        46.60027
G30  21584939.07927     -2223.85027        43.80027
R06  21670568.79826     -1676.90026        38.70026
R18  20682036.14526      2880.95026        39.20026
R16  20212244.57528       946.40028        50.70028
R15  21135730.95929     -1676.75029        54.90029
R05  23494111.58629     -4241.65029        53.90029
R17  20773617.94528      -713.30028        52.70028
R07  22674079.08327      1575.30027        47.10027
E07  24226198.17327     -1387.74027        44.80027
E08  26605047.43026     -3094.61526        41.00026
E27  25257271.67628      1356.95628        49.40028
E29  25800507.00227      1378.82627        46.20027
E30  23713013.74327      -524.69827        45.70027
E34  26770642.89126      2233.45726        38.90026
E36  27385633.54228       213.30028        50.60028
