     4.01           OBSERVATION DATA    M                   RINEX VERSION / TYPE
GnssLogger          samsung 12          20251128 225702 UTC PGM / RUN BY / DATE
Google GnssLogger                                           MARKER NAME
Unknown                                                     MARKER NUMBER
Unknown             Unknown                                 OBSERVER / AGENCY
Unknown             GnssLogger          v3.1.1.1            REC # / TYPE / VERS
Unknown             Unknown                                 ANT # / TYPE
        0.0000        0.0000        0.0000                  ANTENNA: DELTA H/E/N
G    3 C1C D1C S1C                                          SYS / # / OBS TYPES
R    3 C1C D1C S1C                                          SYS / # / OBS TYPES
E    3 C1C D1C S1C                                          SYS / # / OBS TYPES
  2025    11    28    22    57   02.0000000     GPS         TIME OF FIRST OBS
 7 R05  1 R06 -4 R15  0 R16 -1 R17  4 R18 -3 R24  2         GLONASS SLOT / FRQ #
samsung SM-G781U1 (Android 12) HW Year: 2019 HW Model:      COMMENT
qcom,SM8250,                                                COMMENT
                                                            END OF HEADER
> 2025 11 28 22 57 02.4429916  0 24                      
G01  23932885.42528      1259.09628        50.00028
G02  24563174.18628     -1036.98428        52.90028
G07  22719163.06826     -2329.11626        40.10026
G13  20789165.77727       181.43027        43.30027
G14  20396751.54027      -511.05527        41.50027
G15  22499184.05627      1120.19627        44.40027
G17  20714246.14327      1522.83227        42.60027
G19  21978676.89627      2995.67327        43.80027
G22  20694408.57626       -63.28626        40.30026
G30  20925275.15127     -1400.84527        41.90027
R06  21352257.25726       -53.39626        36.80026
R18  21899981.07626      3858.21126        39.70026
R16  20617462.64528      1330.10728        47.70028
R15  20607471.16227     -1282.45327        45.30027
R05  22016909.72826     -3940.91326        38.80026
R24  23175243.63028     -2629.61028        49.50028
R17  20828432.29428      1020.27328        48.90028
E07  23879221.37626      -503.82526        38.90026
E08  25530139.17027     -2789.66527        41.90027
E27  25802908.63527      1671.91827        44.90027
E29  26433460.31326      2095.54526        35.80026
E30  23578299.00027      -191.39427        42.00027
E34  27643626.83328      2546.90328        47.90028
E36  27621407.41528      1077.34928        53.00028
> 2025 11 28 22 57 03.4429916  0 24                      
G01  23932643.49328      1228.05028        51.40028
G02  24563371.44928     -1068.20028        52.80028
G07  22719588.77325     -2360.05025        32.60025
G13  20789135.49827       150.35027        46.80027
G14  20396848.67327      -541.50027        43.90027
G15  22498973.30228      1088.80028        48.50028
G17  20713957.44326      1493.20026        38.60026
G19  21978112.68627      2964.85027        47.40027
G22  20694430.16127       -93.80027        46.90027
G30  20925542.26627     -1431.25027        44.90027
R06  21352263.85326       -86.30026        39.70026
R18  21899268.76926      3827.20026        39.60026
R16  20617211.11928      1299.15028        50.00028
R15  20607699.60428     -1313.65028        48.50028
R05  22017642.42127     -3973.00027        43.40027
R24  23175737.38828     -2661.65028        52.20028
R17  20828246.72228       988.55028        53.00028
E07  23879326.00426      -533.21526        40.90026
E08  25530673.40026     -2818.74426        40.70026
E27  25802596.25228      1642.67328        47.70028
E29  26433060.69027      2063.00027        41.80027
E30  23578339.17327      -223.15027        46.80027
E34  27643146.86528      2517.60728        49.80028
E36  27621203.55628      1047.84628        53.20028
> 2025 11 28 22 57 04.4429916  0 24                      
G01  23932413.25228      1208.60028        50.90028
G02  24563577.40628     -1087.50028        52.90028
G07  22720062.14526     -2379.10026        38.10026
G13  20789104.32027       130.70027        44.10027
G14  20396957.19826      -559.40026        41.30026
G15  22498769.14327      1070.00027        45.40027
G17  20713669.34226      1473.30026        40.40026
G19  21977550.87527      2946.00027        45.80027
G22  20694447.24927      -112.00027        41.70027
G30  20925814.77727     -1449.75027        43.20027
R06  21352288.43626      -105.60026        39.00026
R18  21898557.66126      3807.85026        38.80026
R16  20616969.48628      1280.25028        50.10028
R15  20607945.73328     -1332.40028        47.50028
R05  22018396.99827     -3991.35027        42.70027
R24  23176236.54328     -2681.30028        52.10028
R17  20828062.64928       968.80028        49.60028
E07  23879426.73426      -552.30626        41.00026
E08  25531212.72626     -2837.86326        40.30026
E27  25802285.06727      1623.56927        47.20027
E29  26432671.55926      2044.59026        38.80026
E30  23578381.14427      -242.01427        42.90027
E34  27642668.99628      2498.58528        49.60028
E36  27621008.99128      1028.55028        53.30028
> 2025 11 28 22 57 05.4429916  0 24                      
G01  23932183.91128      1211.00028        50.80028
G02  24563783.36428     -1085.21628        53.00028
G07  22720513.63326     -2377.42126        40.10026
G13  20789085.73327       133.37827        43.20027
G14  20397054.33026      -557.87826        41.00026
G15  22498569.78127      1071.81227        45.90027
G17  20713393.53326      1476.24426        41.00026
G19  21976991.46327      2948.24227        45.90027
G22  20694476.62927      -110.05827        42.20027
G30  20926089.98727     -1448.08427        42.30027
R06  21352283.93926      -103.35026        38.90026
R18  21897851.05026      3809.63426        37.00026
R16  20616734.14928      1282.78328        50.30028
R15  20608193.36227     -1329.76627        47.40027
R05  22019136.88626     -3988.78926        39.70026
R24  23176738.39528     -2678.56728        51.60028
R17  20827882.47428       970.96928        49.00028
E07  23879534.06026      -549.08526        40.70026
E08  25531748.45626     -2834.27426        40.80026
E27  25801975.98127      1627.51227        47.10027
E29  26432282.12926      2048.39026        39.70026
E30  23578428.81127      -238.00227        42.40027
E34  27642193.82528      2502.76028        48.90028
E36  27620809.02928      1032.18028        53.40028
> 2025 11 28 22 57 06.4429916  0 24                      
G01  23931947.97428      1230.75028        51.50028
G02  24563987.52228     -1066.05028        50.80028
G07  22720964.82126     -2357.05026        36.90026
G13  20789056.95327       151.45027        46.10027
G14  20397158.05927      -539.05027        41.80027
G15  22498365.02327      1090.75027        46.60027
G17  20713108.73026      1494.91726        36.90026
G19  21976430.55127      2965.75027        47.30027
G22  20694492.21828       -90.15028        47.70028
G30  20926355.60327     -1428.50027        44.20027
R06  21352307.92226       -84.45026        39.60026
R18  21897108.76426      3829.95026        38.00026
R16  20616483.82228      1302.45028        49.90028
R15  20608440.09127     -1310.20027        46.70027
R05  22019874.67526     -3968.10026        41.10026
R24  23177238.44928     -2658.65028        52.30028
R17  20827700.80028       989.45028        52.20028
E07  23879638.98727      -530.77327        42.00027
E08  25532286.28326     -2815.53626        39.80026
E27  25801663.59728      1646.11628        48.20028
E29  26431884.90427      2066.67527        42.90027
E30  23578470.48227      -219.45927        46.60027
E34  27641715.95528      2521.27228        49.30028
E36  27620611.46628      1050.48528        52.90028
> 2025 11 28 22 57 07.4429916  0 24                      
G01  23931712.63728      1259.88928        51.80028
G02  24564188.98328     -1036.47728        50.90028
G07  22721408.51325     -2326.39825        34.10025
G13  20789021.27727       181.01727        46.90027
G14  20397260.88727      -507.93327        42.60027
G15  22498153.37027      1119.87827        46.70027
G17  20712816.73326      1523.79526        37.30026
G19  21975864.84328      2996.81728        47.70028
G22  20694506.60828       -61.25128        48.20028
G30  20926627.51427     -1399.53527        43.90027
R06  21352325.91026       -53.93526        40.40026
R18  21896382.36725      3861.22225        35.40025
R16  20616243.98828      1332.52928        50.90028
R15  20608686.52027     -1279.99927        46.90027
R05  22020619.95927     -3939.25227        42.40027
R24  23177732.50728     -2629.67828        52.90028
R17  20827514.32928      1020.50328        51.90028
E07  23879733.72227      -501.57227        42.50027
E08  25532822.31226     -2786.24626        40.20026
E27  25801349.41528      1675.40628        48.30028
E29  26431488.57827      2096.02527        43.00027
E30  23578508.55527      -190.16227        46.40027
E34  27641232.39028      2550.69528        50.60028
E36  27620410.30528      1079.61928        53.10028
> 2025 11 28 22 57 08.4429916  0 24                      
G01  23931474.30228      1259.99028        52.00028
G02  24564384.74828     -1036.54628        51.20028
G07  22721860.00125     -2330.15025        32.10025
G13  20788984.70327       180.67227        46.60027
G14  20397356.52127      -509.80027        42.80027
G15  22497939.01827      1119.89327        46.70027
G17  20712527.43326      1521.80026        35.50026
G19  21975296.13628      2997.31628        48.50028
G22  20694515.60228       -60.52228        48.00028
G30  20926895.82927     -1399.00527        43.80027
R06  21352329.80726       -57.35026        40.20026
R18  21895662.56526      3858.15026        39.10026
R16  20615993.06228      1332.81228        51.00028
R15  20608923.05727     -1279.30927        46.90027
R05  22021376.03626     -3938.70826        39.90026
R24  23178219.67028     -2629.70328        52.80028
R17  20827323.36128      1018.15028        52.00028
E07  23879830.25527      -500.45527        42.10027
E08  25533350.84626     -2785.80526        39.80026
E27  25801030.73528      1676.82628        49.30028
E29  26431091.65327      2097.39227        42.60027
E30  23578545.13027      -188.75327        46.90027
E34  27640750.02428      2552.27928        51.20028
E36  27620207.64528      1080.89428        53.00028
> 2025 11 28 22 57 09.4429916  0 24                      
G01  23931240.46428      1222.35028        52.10028
G02  24564583.81028     -1073.70028        51.10028
G07  22722298.59725     -2365.65025        31.90025
G13  20788958.02127       143.75027        46.90027
G14  20397452.15527      -546.25027        43.10027
G15  22497731.56227      1081.75027        47.00027
G17  20712251.02426      1485.90026        36.10026
G19  21974728.92928      2959.70028        48.20028
G22  20694532.39128       -98.05028        47.80028
G30  20927174.63627     -1436.60027        44.20027
R06  21352340.59926       -95.00026        40.30026
R18  21894972.44326      3821.75026        38.70026
R16  20615753.52828      1295.50028        51.20028
R15  20609170.38527     -1316.75027        47.30027
R05  22022109.32826     -3976.95026        40.60026
R24  23178714.92728     -2667.60028        52.80028
R17  20827135.69128       981.30028        51.90028
E07  23879928.58727      -538.10027        42.10027
E08  25533881.77926     -2822.50026        40.20026
E27  25800717.15228      1639.00028        49.10028
E29  26430695.92727      2059.70027        42.80027
E30  23578585.60227      -226.35027        47.10027
E34  27640267.05828      2514.55028        51.00028
E36  27620003.48728      1043.15028        52.80028
> 2025 11 28 22 57 10.4429916  0 24                      
G01  23931011.42328      1202.38028        52.10028
G02  24564793.36528     -1094.24328        51.30028
G07  22722747.68625     -2386.15025        32.60025
G13  20788933.73827       122.40027        46.90027
G14  20397563.97727      -565.97227        42.70027
G15  22497525.60427      1061.70627        46.80027
G17  20711972.51726      1465.00026        35.80026
G19  21974168.01728      2939.71728        48.60028
G22  20694554.57528      -118.24528        48.60028
G30  20927452.24327     -1457.06827        44.60027
R06  21352368.18026      -115.50026        40.20026
R18  21894250.84326      3801.79626        39.60026
R16  20615507.69828      1274.95428        51.40028
R15  20609432.10427     -1338.05027        47.40027
R05  22022858.51026     -3997.27026        40.70026
R24  23179210.78328     -2688.85828        52.60028
R17  20826948.92028       959.61528        51.90028
E07  23880034.11427      -559.19827        42.40027
E08  25534421.10526     -2843.11926        40.20026
E27  25800405.96828      1618.74428        49.50028
E29  26430306.49727      2038.88227        42.80027
E30  23578629.97127      -246.88327        47.20027
E34  27639792.18728      2494.33428        51.60028
E36  27619809.52128      1022.23728        53.10028
> 2025 11 28 22 57 11.4429916  0 24                      
G01  23930779.08428      1208.71628        52.00028
G02  24565001.12128     -1089.09028        51.00028
G07  22723202.17225     -2375.95025        32.30025
G13  20788907.65627       128.42327        46.30027
G14  20397667.10627      -559.99627        42.60027
G15  22497320.54627      1067.35627        46.50027
G17  20711685.01625      1472.22925        35.40025
G19  21973607.70528      2945.70228        48.70028
G22  20694578.25928      -112.26328        49.00028
G30  20927727.45327     -1451.04327        44.20027
R06  21352389.76526      -109.20126        40.40026
R18  21893551.72726      3808.08326        39.40026
R16  20615269.66328      1281.17628        51.50028
R15  20609673.43727     -1331.44527        47.20027
R05  22023598.09726     -3991.01726        40.90026
R24  23179718.63228     -2683.06128        52.70028
R17  20826772.34328       965.20028        52.20028
E07  23880142.63827      -552.21927        41.90027
E08  25534962.83026     -2835.81926        40.30026
E27  25800096.28228      1626.04328        50.10028
E29  26429914.96827      2045.94027        42.60027
E30  23578674.04127      -239.61927        47.20027
E34  27639315.81728      2501.70728        51.20028
E36  27619611.35828      1029.29728        53.00028
> 2025 11 28 22 57 12.4429916  0 24                      
G01  23930549.44328      1223.39628        51.80028
G02  24565205.27928     -1073.75028        50.70028
G07  22723638.96925     -2364.45025        30.40025
G13  20788881.27427       142.65027        46.10027
G14  20397766.63727      -545.00027        41.70027
G15  22497119.38627      1081.85027        46.20027
G17  20711403.21125      1483.80725        35.30025
G19  21973046.49428      2960.65028        47.80028
G22  20694597.44628       -97.00028        48.80028
G30  20928003.86227     -1436.65027        44.30027
R06  21352403.85626       -94.25026        39.80026
R18  21892845.11626      3823.90026        38.20026
R16  20615031.02828      1296.40028        51.00028
R15  20609914.17127     -1316.35027        46.90027
R05  22024338.88526     -3975.70026        41.40026
R24  23180214.78828     -2667.95028        51.90028
R17  20826590.36928       980.00028        51.80028
E07  23880245.76727      -538.35727        42.00027
E08  25535500.05826     -2821.66226        40.30026
E27  25799787.49628      1640.19928        49.30028
E29  26429528.53527      2060.08827        42.30027
E30  23578718.11027      -225.49427        46.80027
E34  27638836.74928      2515.94328        51.00028
E36  27619415.29428      1043.19728        52.70028
> 2025 11 28 22 57 13.4429916  0 24                      
G01  23930313.50628      1254.28428        51.40028
G02  24565409.43828     -1042.55528        50.60028
G07  22724103.34825     -2332.15025        30.70025
G13  20788849.79627       173.85327        45.60027
G14  20397859.27326      -513.72526        40.80026
G15  22496902.93527      1112.95127        45.90027
G17  20711120.50725      1517.25125        34.40025
G19  21972478.38728      2991.90628        47.60028
G22  20694612.13528       -66.03328        48.40028
G30  20928275.77327     -1405.07427        44.00027
R06  21352425.14126       -63.39126        39.30026
R18  21892143.00226      3854.93226        37.70026
R16  20614779.20328      1328.34928        50.50028
R15  20610159.40127     -1284.28327        46.70027
R05  22025082.37026     -3944.07526        41.20026
R24  23180719.33928     -2636.50028        51.30028
R17  20826406.59628      1011.13928        51.60028
E07  23880345.89826      -507.60226        41.30026
E08  25536033.08926     -2790.64126        40.10026
E27  25799471.21528      1671.36128        49.00028
E29  26429129.51227      2090.94027        41.50027
E30  23578760.08127      -194.35227        46.50027
E34  27638356.18128      2547.18428        50.50028
E36  27619214.13328      1074.10228        52.30028
> 2025 11 28 22 57 14.4429916  0 24                      
G01  23930072.47328      1271.96028        52.00028
G02  24565601.60528     -1025.67928        50.70028
G07  22724554.53525     -2315.50025        31.70025
G13  20788812.62227       191.53427        46.40027
G14  20397961.80226      -495.81926        41.00026
G15  22496693.68027      1130.83427        46.10027
G17  20710817.11726      1534.93526        35.80026
G19  21971904.88428      3010.13728        47.70028
G22  20694622.92828       -47.46028        49.00028
G30  20928537.19227     -1387.44327        44.50027
R06  21352426.94026       -45.27026        40.10026
R18  21891393.52126      3872.74126        37.40026
R16  20614532.47328      1347.16428        51.50028
R15  20610406.43028     -1265.71128        47.60028
R05  22025809.06727     -3925.68227        42.40027
R24  23181204.70328     -2618.58528        51.90028
R17  20826214.72928      1028.50528        51.90028
E07  23880440.03327      -489.68727        41.60027
E08  25536561.32426     -2772.67826        40.50026
E27  25799151.33628      1689.25128        49.30028
E29  26428732.88627      2108.12127        42.40027
E30  23578794.25827      -176.45827        47.10027
E34  27637869.01928      2565.58628        51.00028
E36  27619007.27628      1091.67528        52.80028
> 2025 11 28 22 57 15.4429916  0 24                      
G01  23929839.23428      1218.55028        52.00028
G02  24565804.56528     -1078.70028        51.10028
G07  22724987.13625     -2369.25025        33.00025
G13  20788785.94027       137.80027        46.90027
G14  20398053.23926      -548.95026        40.90026
G15  22496484.42527      1076.70027        46.20027
G17  20710539.20925      1479.85025        35.40025
G19  21971338.57628      2956.45028        47.60028
G22  20694640.91528      -101.25028        49.30028
G30  20928804.90727     -1440.15027        44.50027
R06  21352450.92326      -100.50026        39.70026
R18  21890687.21026      3818.80026        37.90026
R16  20614286.64428      1292.85028        51.60028
R15  20610647.76328     -1319.30028        48.00028
R05  22026562.44527     -3980.40027        42.90027
R24  23181695.46328     -2673.70028        52.20028
R17  20826030.35628       973.90028        52.20028
E07  23880539.56427      -542.95027        42.50027
E08  25537094.05526     -2824.75026        40.40026
E27  25798837.15428      1636.55028        49.50028
E29  26428335.96127      2056.00027        42.70027
E30  23578835.32927      -229.35027        46.90027
E34  27637388.45128      2512.75028        51.10028
E36  27618807.01528      1038.90028        53.20028
> 2025 11 28 22 57 16.4429916  0 24                      
G01  23929604.79728      1205.84328        51.80028
G02  24566012.02128     -1091.14628        51.00028
G07  22725456.61125     -2377.41225        34.60025
G13  20788757.16027       125.15027        46.80027
G14  20398165.36127      -560.25227        41.50027
G15  22496279.66727      1064.08327        46.60027
G17  20710265.79926      1468.07826        36.00026
G19  21970778.56428      2944.15028        48.40028
G22  20694656.20528      -113.65028        49.60028
G30  20929082.21527     -1453.50027        44.90027
R06  21352462.91526      -112.75026        39.90026
R18  21889948.52126      3806.36026        39.20026
R16  20614042.91228      1280.15028        51.80028
R15  20610899.88828     -1332.40028        47.70028
R05  22027302.33327     -3992.48627        42.30027
R24  23182204.21128     -2686.55028        52.10028
R17  20825854.67828       960.97528        52.20028
E07  23880644.19127      -555.67027        41.70027
E08  25537632.48227     -2837.93427        41.50027
E27  25798526.26928      1624.16028        50.00028
E29  26427946.53127      2043.36327        42.40027
E30  23578880.59828      -241.58828        47.50028
E34  27636912.98028      2500.25028        51.10028
E36  27618610.95128      1026.21228        53.20028
> 2025 11 28 22 57 17.4429916  0 24                      
G01  23929375.45528      1214.27028        51.30028
G02  24566221.27628     -1082.90128        51.20028
G07  22725909.29825     -2372.19325        34.50025
G13  20788738.27327       133.15827        46.50027
G14  20398267.89027      -552.70327        41.90027
G15  22496075.20828      1072.17228        47.50028
G17  20709977.69826      1476.97826        36.50026
G19  21970217.65228      2952.53828        49.20028
G22  20694681.98728      -105.08328        49.80028
G30  20929361.92127     -1444.72527        45.30027
R06  21352497.99026      -105.58826        39.80026
R18  21889220.02626      3815.00726        40.10026
R16  20613800.08028      1289.09828        51.80028
R15  20611149.31528     -1323.58428        47.90028
R05  22028042.22127     -3983.84627        42.50027
R24  23182703.96528     -2677.96128        51.90028
R17  20825674.50328       969.08328        52.30028
E07  23880747.62027      -547.21927        41.50027
E08  25538174.20727     -2829.30827        42.20027
E27  25798215.68428      1632.81828        49.50028
E29  26427556.50127      2051.93227        42.40027
E30  23578925.86628      -232.93328        47.80028
E34  27636432.11328      2509.01628        50.70028
E36  27618411.28929      1034.62529        53.60029
> 2025 11 28 22 57 18.4429916  0 24                      
G01  23929142.51728      1227.73528        51.20028
G02  24566426.33428     -1069.47428        51.40028
G07  22726359.58625     -2358.14525        33.80025
G13  20788707.99427       146.35627        45.90027
G14  20398374.01727      -539.12227        42.20027
G15  22495874.34728      1085.40628        47.50028
G17  20709695.89326      1490.14726        37.00026
G19  21969655.54128      2966.12928        49.00028
G22  20694700.57428       -91.54828        49.90028
G30  20929636.23227     -1431.29427        45.40027
R06  21352519.57526       -92.36626        39.40026
R18  21888499.62426      3828.74226        40.40026
R16  20613558.44828      1303.02628        51.70028
R15  20611393.34728     -1309.71528        47.60028
R05  22028777.01227     -3970.05527        42.80027
R24  23183201.02128     -2664.39228        52.00028
R17  20825487.73228       982.31028        52.00028
E07  23880851.94727      -533.92627        41.80027
E08  25538710.83627     -2815.72627        42.10027
E27  25797904.79928      1646.46728        49.50028
E29  26427166.47127      2065.40427        42.50027
E30  23578971.43528      -219.36028        47.80028
E34  27635955.44328      2522.74128        50.70028
E36  27618217.92328      1048.03628        53.40028
> 2025 11 28 22 57 19.4429916  0 24                      
G01  23928904.78128      1250.65428        51.00028
G02  24566625.39628     -1046.69528        51.30028
G07  22726822.16626     -2334.50426        35.60026
G13  20788681.01327       169.11327        46.80027
G14  20398474.74727      -515.28527        42.20027
G15  22495662.09427      1108.17427        47.30027
G17  20709426.38026      1513.62426        36.00026
G19  21969088.03428      2989.21628        49.00028
G22  20694715.56428       -68.33028        49.90028
G30  20929903.64627     -1408.23127        45.30027
R06  21352518.97626       -68.78226        39.70026
R18  21887784.61926      3852.81426        40.30026
R16  20613309.62028      1326.72628        52.10028
R15  20611632.28128     -1286.00628        47.80028
R05  22029527.09327     -3946.51627        42.70027
R24  23183701.67528     -2641.20328        51.90028
R17  20825302.46028      1005.32928        51.80028
E07  23880951.77827      -510.85327        41.80027
E08  25539244.16627     -2792.43027        41.70027
E27  25797587.61928      1669.81628        49.40028
E29  26426768.34627      2088.63827        42.50027
E30  23579011.00828      -196.00628        47.80028
E34  27635470.97928      2546.20028        50.70028
E36  27618013.46429      1071.13829        53.60029
> 2025 11 28 22 57 20.4429916  0 24                      
G01  23928667.04628      1248.77028        51.30028
G02  24566826.25728     -1048.72228        51.20028
G07  22727262.86125     -2337.85025        35.30025
G13  20788647.73627       167.48927        46.60027
G14  20398574.27827      -517.25027        41.90027
G15  22495456.13727      1106.30527        47.20027
G17  20709122.39026      1511.75026        36.40026
G19  21968516.03028      2987.79028        48.90028
G22  20694728.15528       -70.13128        49.50028
G30  20930169.56227     -1410.19927        45.00027
R06  21352529.76826       -71.60026        39.50026
R18  21887065.11726      3850.73326        40.40026
R16  20613060.19328      1325.01428        51.90028
R15  20611866.11928     -1287.72628        47.90028
R05  22030266.08127     -3947.99427        42.50027
R24  23184193.63428     -2643.19928        52.00028
R17  20825111.79228      1002.91228        51.80028
E07  23881047.11227      -511.51627        41.70027
E08  25539775.69827     -2792.90327        41.60027
E27  25797271.63828      1669.42428        49.60028
E29  26426372.32027      2088.09627        42.10027
E30  23579047.28228      -196.48328        47.70028
E34  27634988.01328      2545.95428        50.80028
E36  27617811.10428      1070.62528        53.40028
> 2025 11 28 22 57 21.4429916  0 24                      
G01  23928431.10928      1207.75028        51.50028
G02  24567031.91528     -1089.70028        51.00028
G07  22727711.95025     -2377.05025        34.90025
G13  20788624.65227       125.50027        47.20027
G14  20398683.70227      -558.00027        42.50027
G15  22495251.97827      1064.55027        47.10027
G17  20708833.39026      1468.85026        36.80026
G19  21967956.61728      2946.90028        48.70028
G22  20694744.94328      -110.95028        49.70028
G30  20930437.27727     -1451.00027        45.00027
R06  21352555.85026      -114.65026        39.80026
R18  21886351.91126      3809.80026        41.00026
R16  20612820.05928      1283.55028        52.30028
R15  20612112.24928     -1329.50028        47.70028
R05  22031017.36127     -3990.15027        42.90027
R24  23184692.48928     -2685.30028        51.80028
R17  20824925.62128       960.80028        51.70028
E07  23881145.74427      -553.70027        42.00027
E08  25540314.42527     -2834.90027        41.90027
E27  25796958.35528      1627.45028        49.60028
E29  26425982.29027      2047.30027        42.60027
E30  23579091.65228      -238.35028        48.20028
E34  27634509.24528      2504.05028        50.60028
E36  27617612.64229      1028.75029        53.50029
> 2025 11 28 22 57 22.4429916  0 24                      
G01  23928202.96728      1199.55828        50.90028
G02  24567239.37128     -1097.95828        51.40028
G07  22728155.34326     -2385.29826        36.40026
G13  20788598.87027       117.78827        46.20027
G14  20398786.83127      -565.98827        41.50027
G15  22495046.32127      1056.34127        46.30027
G17  20708555.78226      1462.16726        36.70026
G19  21967394.50628      2938.48628        48.50028
G22  20694765.62928      -118.38928        49.20028
G30  20930717.58327     -1458.68427        44.60027
R06  21352559.44826      -122.01526        39.80026
R18  21885644.40126      3800.75126        41.20026
R16  20612585.02228      1276.23028        52.30028
R15  20612354.18127     -1336.48727        46.90027
R05  22031760.84727     -3997.99527        41.80027
R24  23185197.03928     -2693.71328        51.60028
R17  20824746.94528       952.77428        51.70028
E07  23881253.37027      -560.39927        41.60027
E08  25540852.55326     -2841.12526        40.00026
E27  25796646.27128      1621.24128        49.10028
E29  26425590.46227      2039.51727        42.20027
E30  23579137.52028      -244.65928        47.80028
E34  27634031.07628      2497.83228        50.70028
E36  27617418.07728      1021.81728        53.30028
> 2025 11 28 22 57 23.4429916  0 24                      
G01  23927972.72628      1215.85028        52.40028
G02  24567444.72928     -1081.40028        52.30028
G07  22728594.53926     -2369.55026        40.50026
G13  20788573.08827       133.85027        46.80027
G14  20398881.26626      -549.35026        38.20026
G15  22494840.66328      1073.15028        48.10028
G17  20708277.57526      1478.50026        40.10026
G19  21966834.79427      2955.30027        46.90027
G22  20694787.81427      -101.75027        46.60027
G30  20930996.39027     -1441.80027        42.90027
R06  21352592.42526      -105.95026        39.10026
R18  21884931.79427      3817.35027        42.50027
R16  20612343.08928      1293.10028        53.40028
R15  20612614.40127     -1319.20027        43.90027
R05  22032516.62326     -3980.00026        40.50026
R24  23185691.69728     -2676.50028        51.60028
R17  20824571.56628       970.05028        49.70028
E07  23881355.89926      -545.01826        40.90026
E08  25541394.87726     -2825.50326        37.60026
E27  25796335.98528      1636.85128        48.20028
E29  26425199.23227      2055.12627        42.70027
E30  23579184.28827      -229.03827        45.00027
E34  27633556.80428      2513.61428        50.30028
E36  27617217.81529      1037.25229        53.60029
> 2025 11 28 22 57 24.4429916  0 24                      
G01  23927740.98728      1228.29528        51.00028
G02  24567650.38728     -1069.46828        52.40028
G07  22729050.52326     -2356.69426        38.30026
G13  20788544.00827       145.55327        45.10027
G14  20398998.48427      -537.21427        43.10027
G15  22494635.00527      1084.66427        46.70027
G17  20707997.56926      1489.85126        39.50026
G19  21966269.98528      2967.50528        47.70028
G22  20694804.00327       -90.02027        47.30027
G30  20931275.49727     -1430.61627        43.90027
R06  21352598.12126       -94.42426        40.20026
R18  21884217.98826      3830.06426        40.50026
R16  20612106.25328      1305.25728        53.40028
R15  20612853.03628     -1307.35528        48.00028
R05  22033257.11127     -3968.45427        43.60027
R24  23186195.64828     -2664.79128        51.70028
R17  20824389.29228       980.62928        49.80028
E07  23881458.72726      -533.21326        40.50026
E08  25541925.51026     -2813.64226        38.90026
E27  25796023.90128      1648.83028        49.10028
E29  26424805.90527      2066.82227        42.30027
E30  23579222.36127      -217.13427        47.00027
E34  27633076.83628      2525.58128        47.80028
E36  27617023.55028      1048.90928        52.70028
> 2025 11 28 22 57 25.4429916  0 24                      
G01  23927506.24928      1251.70628        52.10028
G02  24567851.84729     -1046.06629        54.10029
G07  22729478.92625     -2331.65025        30.60025
G13  20788514.92827       168.92427        44.40027
G14  20399097.71628      -513.59028        47.60028
G15  22494424.55127      1108.04027        47.10027
G17  20707731.05326      1514.49726        35.60026
G19  21965703.07727      2991.18727        47.30027
G22  20694819.59228       -66.12528        47.80028
G30  20931557.30226     -1406.19826        38.00026
R06  21352632.89726       -70.88826        40.00026
R18  21883499.68626      3853.99126        38.90026
R16  20611852.62928      1329.58128        52.00028
R15  20613098.56629     -1283.21629        53.80029
R05  22034005.39327     -3944.27627        42.40027
R24  23186685.80929     -2641.19829        54.10029
R17  20824203.42128      1004.13228        49.50028
E07  23881559.75727      -509.75627        42.00027
E08  25542458.24126     -2789.63126        40.60026
E27  25795708.52028      1672.78128        48.00028
E29  26424410.47827      2090.68427        42.60027
E30  23579263.13328      -193.23528        49.00028
E34  27632591.77227      2549.68427        47.00027
E36  27616817.29228      1072.69728        52.10028
> 2025 11 28 22 57 26.4429916  0 24                      
G01  23927269.11328      1245.32228        52.00028
G02  24568048.51129     -1052.67929        53.60029
G07  22729925.61725     -2342.05025        34.70025
G13  20788479.25226       162.26526        40.40026
G14  20399196.64727      -519.74527        47.30027
G15  22494214.09727      1101.72027        46.00027
G17  20707429.16227      1505.85027        41.70027
G19  21965136.17027      2985.22327        47.20027
G22  20694832.48327       -72.43427        47.30027
G30  20931826.81526     -1412.35226        38.20026
R06  21352650.28526       -76.81326        39.80026
R18  21882761.59725      3839.70525        34.70025
R16  20611602.60228      1323.31328        52.10028
R15  20613335.10229     -1289.34829        53.50029
R05  22034726.69327     -3950.45227        44.10027
R24  23187185.56329     -2647.70929        53.70029
R17  20824015.75128       998.91728        51.30028
E07  23881654.49227      -514.86327        43.30027
E08  25542986.47626     -2794.52726        37.30026
E27  25795390.44028      1667.86128        48.50028
E29  26424015.35226      2085.74926        41.10026
E30  23579301.80628      -198.18728        48.00028
E34  27632110.30527      2544.92927        46.10027
E36  27616617.03128      1067.65028        52.00028
> 2025 11 28 22 57 27.4429916  0 24                      
G01  23927037.37428      1200.45028        50.90028
G02  24568255.66829     -1096.95029        53.60029
G07  22730378.90326     -2381.35026        38.00026
G13  20788460.36627       117.50027        43.00027
G14  20399302.47427      -563.65027        47.30027
G15  22494011.13727      1056.70027        46.40027
G17  20707139.86327      1463.15027        42.90027
G19  21964573.16028      2940.75028        47.70028
G22  20694853.76828      -116.95028        47.60028
G30  20932074.44426     -1459.45026        35.60026
R06  21352654.78226      -122.80026        39.50026
R18  21882039.39725      3803.35025        33.90025
R16  20611367.86428      1278.75028        53.30028
R15  20613582.13129     -1333.80029        54.00029
R05  22035473.47627     -3995.35027        45.90027
R24  23187687.11529     -2693.30029        53.80029
R17  20823843.37028       951.45028        50.00028
E07  23881755.52227      -560.05027        42.60027
E08  25543518.60726     -2837.35026        35.70026
E27  25795079.25528      1623.00028        49.10028
E29  26423619.02626      2041.25026        40.50026
E30  23579344.67728      -242.85028        48.70028
E34  27631631.23727      2500.60027        45.30027
E36  27616420.36728      1022.30028        52.90028
> 2025 11 28 22 57 28.4429916  0 24                      
G01  23926807.43328      1194.34428        51.90028
G02  24568464.02329     -1103.66029        54.40029
G07  22730838.18525     -2387.60025        33.20025
G13  20788438.48127       111.31827        43.80027
G14  20399410.09927      -569.83327        47.40027
G15  22493798.88427      1050.62127        46.10027
G17  20706862.55527      1456.14127        42.40027
G19  21964011.04927      2934.72027        47.30027
G22  20694874.45428      -122.47828        48.40028
G30  20932349.35326     -1463.30226        37.40026
R06  21352685.66126      -129.72926        39.30026
R18  21881320.49425      3796.55025        33.40025
R16  20611124.13329      1272.72029        53.50029
R15  20613838.45429     -1340.06529        53.80029
R05  22036231.65127     -4001.71027        45.00027
R24  23188185.07129     -2700.06429        54.50029
R17  20823664.39428       945.13428        51.30028
E07  23881864.64627      -565.53927        43.70027
E08  25544059.43326     -2844.69026        37.20026
E27  25794770.46928      1617.90728        48.90028
E29  26423233.49326      2035.55126        40.00026
E30  23579393.24328      -248.14128        48.60028
E34  27631153.96727      2495.03827        45.80027
E36  27616220.70528      1017.06828        52.50028
> 2025 11 28 22 57 29.4429916  0 24                      
G01  23926582.28928      1210.45028        51.50028
G02  24568672.37929     -1087.55029        53.90029
G07  22731294.46925     -2374.10025        35.10025
G13  20788418.69426       126.30026        41.30026
G14  20399515.32728      -554.05028        47.50028
G15  22493603.42027      1066.15027        45.90027
G17  20706588.24427      1471.90027        42.30027
G19  21963451.33628      2950.70028        47.50028
G22  20694892.14128      -106.40028        47.90028
G30  20932620.66525     -1448.45025        34.30025
R06  21352706.34626      -114.70026        40.20026
R18  21880611.48525      3814.10025        33.80025
R16  20610886.99728      1289.10028        52.70028
R15  20614083.98429     -1324.15029        54.70029
R05  22036977.53527     -3986.20027        45.50027
R24  23188693.81929     -2683.90029        54.20029
R17  20823479.72228       960.50028        50.80028
E07  23881970.47327      -550.83527        42.80027
E08  25544601.75726     -2829.73526        36.00026
E27  25794460.18428      1632.88628        49.10028
E29  26422842.56426      2050.09126        40.70026
E30  23579436.11328      -233.19928        48.90028
E34  27630677.89727      2510.13627        46.20027
E36  27616030.03728      1031.77828        53.00028
> 2025 11 28 22 57 30.4429916  0 24                      
G01  23926347.25228      1222.56628        51.70028
G02  24568881.33529     -1075.58829        54.10029
G07  22731711.78125     -2360.05025        31.60025
G13  20788395.61027       138.43827        43.80027
G14  20399619.95427      -541.84627        47.30027
G15  22493399.26127      1077.80527        46.60027
G17  20706304.34126      1483.58926        40.50026
G19  21962891.62428      2962.55628        48.20028
G22  20694909.23028       -94.51328        47.90028
G30  20932903.07025     -1435.91425        33.40025
R06  21352726.43226      -102.46526        39.20026
R18  21879898.87825      3823.10025        33.90025
R16  20610640.26828      1301.31928        53.00028
R15  20614333.11129     -1311.44329        54.40029
R05  22037716.22427     -3973.24827        43.90027
R24  23189193.27329     -2671.65029        54.20029
R17  20823307.64128       972.38828        51.50028
E07  23882073.00227      -539.12327        41.90027
E08  25545134.78826     -2817.63226        36.60026
E27  25794147.20128      1644.89728        49.70028
E29  26422453.13426      2062.17126        38.60026
E30  23579481.98128      -221.10628        48.60028
E34  27630202.42627      2522.23727        46.70027
E36  27615831.57528      1043.63028        52.70028
> 2025 11 28 22 57 31.4429916  0 24                      
G01  23926116.11228      1247.01128        49.80028
G02  24569080.69729     -1051.22329        54.30029
G07  22732178.55726     -2336.26526        37.00026
G13  20788362.03427       162.80927        45.50027
G14  20399728.17928      -517.12828        48.00028
G15  22493193.30427      1102.02227        46.40027
G17  20706017.73926      1507.92326        40.40026
G19  21962324.41628      2987.22228        48.30028
G22  20694928.11727       -69.79527        47.10027
G30  20933183.07625     -1409.50025        34.10025
R06  21352747.71826       -78.10926        39.50026
R18  21879202.16125      3849.00025        32.90025
R16  20610395.63728      1326.57928        52.70028
R15  20614577.74229     -1286.26629        54.10029
R05  22038463.00727     -3948.18027        41.70027
R24  23189698.72329     -2647.00929        53.60029
R17  20823122.37028       996.96428        49.60028
E07  23882166.53726      -514.59426        40.00026
E08  25545673.21626     -2792.97126        36.70026
E27  25793833.31828      1669.85528        48.50028
E29  26422059.80626      2086.84926        40.60026
E30  23579517.95728      -196.30928        49.00028
E34  27629717.36227      2547.22727        46.70027
E36  27615629.21529      1068.23829        53.70029
> 2025 11 28 22 57 32.4429916  0 23                      
G01  23925878.97628      1246.95928        51.30028
G02  24569280.95829     -1051.46529        54.00029
G13  20788333.55327       162.96727        46.30027
G14  20399826.21127      -516.98727        47.20027
G15  22492982.25027      1101.99527        46.80027
G17  20705729.33926      1507.97526        39.70026
G19  21961753.91128      2987.63928        48.50028
G22  20694937.71028       -69.77628        48.00028
G30  20933450.19126     -1411.36726        37.30026
R06  21352759.40926       -78.11926        40.40026
R18  21878456.57726      3850.28426        36.30026
R16  20610146.80928      1326.69128        52.50028
R15  20614813.97829     -1286.12329        53.90029
R05  22039193.30127     -3947.75227        46.00027
R24  23190181.08929     -2647.21929        53.80029
R17  20822933.50028       996.43228        50.90028
E07  23882269.66626      -513.16826        39.80026
E08  25546205.94726     -2791.63826        37.80026
E27  25793513.14027      1671.38927        47.30027
E29  26421661.08226      2086.09526        40.20026
E30  23579556.93028      -194.87328        48.90028
E34  27629232.29827      2546.61727        46.40027
E36  27615425.35628      1067.27228        52.70028
> 2025 11 28 22 57 33.4429916  0 23                      
G01  23925644.23828      1207.95028        51.40028
G02  24569485.11729     -1090.90029        54.90029
G13  20788306.27227       123.55027        45.40027
G14  20399929.04027      -556.25027        47.10027
G15  22492778.39127      1062.50027        45.00027
G17  20705447.23426      1467.85026        37.20026
G19  21961191.20128      2948.25028        49.20028
G22  20694955.99727      -108.10027        47.20027
G30  20933724.80126     -1449.45026        37.70026
R06  21352788.19027      -117.60027        41.90027
R18  21877764.65626      3811.80026        39.00026
R16  20609903.07828      1287.40028        52.70028
R15  20615053.51328     -1325.20028        53.20028
R05  22039937.98627     -3987.30027        46.70027
R24  23190685.93929     -2687.75029        54.20029
R17  20822757.52228       956.70028        50.10028
E07  23882372.19527      -552.85027        42.90027
E08  25546743.77426     -2832.10026        38.60026
E27  25793202.85428      1631.30028        49.50028
E29  26421271.05226      2048.56826        39.70026
E30  23579600.69928      -234.65028        49.30028
E34  27628751.13127      2509.44827        46.00027
E36  27615228.99228      1029.84828        52.30028
> 2025 11 28 22 57 34.4429916  0 24                      
G01  23925414.89728      1196.28428        50.60028
G02  24569693.47229     -1102.14829        54.30029
G07  22733554.60524     -2384.10024        27.90024
G13  20788290.98327       110.82027        45.40027
G14  20400031.26927      -568.35727        47.20027
G15  22492581.72728      1050.79528        48.60028
G17  20705170.22626      1455.77826        38.90026
G19  21960629.39028      2936.93028        48.10028
G22  20694977.58227      -119.97527        47.00027
G30  20933997.91226     -1463.08026        37.20026
R06  21352799.28226      -130.94726        40.50026
R18  21877044.55426      3799.07926        37.10026
R16  20609659.94728      1274.79728        52.80028
R15  20615312.83329     -1338.05329        54.00029
R05  22040688.06627     -3999.16727        45.70027
R24  23191183.89529     -2699.07729        54.70029
R17  20822576.74728       943.67028        50.20028
E07  23882479.52127      -565.28127        42.20027
E08  25547278.90426     -2842.92126        38.60026
E27  25792892.26928      1620.05128        47.90028
E29  26420880.12227      2036.62527        43.00027
E30  23579647.16728      -246.19128        49.60028
E34  27628277.15927      2497.71127        46.60027
E36  27615032.62828      1017.71128        52.90028
> 2025 11 28 22 57 35.4429916  0 24                      
G01  23925187.05528      1205.45128        51.10028
G02  24569900.92929     -1093.72429        54.90029
G07  22733973.71525     -2377.90025        33.50025
G13  20788268.79827       120.28227        44.70027
G14  20400132.89927      -556.40027        47.00027
G15  22492379.36728      1059.64728        48.40028
G17  20704892.31926      1468.65026        38.80026
G19  21960069.07828      2946.19128        48.10028
G22  20695000.66627      -110.68427        47.20027
G30  20934260.53026     -1451.60026        36.30026
R06  21352829.86126      -121.99926        41.20026
R18  21876306.46525      3811.60025        35.20025
R16  20609422.81128      1286.05028        52.10028
R15  20615565.55829     -1326.40029        54.30029
R05  22041437.24827     -3989.72927        45.80027
R24  23191692.04329     -2689.99229        53.80029
R17  20822395.37328       953.18728        50.30028
E07  23882584.74826      -554.92326        41.10026
E08  25547813.73426     -2832.20226        37.90026
E27  25792583.18327      1630.51427        46.10027
E29  26420489.79327      2046.96827        43.50027
E30  23579688.83828      -235.60828        49.20028
E34  27627798.69027      2508.38427        46.50027
E36  27614838.96228      1028.05328        53.10028
> 2025 11 28 22 57 36.4429916  0 24                      
G01  23924958.01328      1221.05028        52.40028
G02  24570106.88629     -1077.60029        54.90029
G07  22734443.19024     -2345.70024        27.00024
G13  20788240.61827       136.35027        47.00027
G14  20400236.62727      -541.65027        47.10027
G15  22492176.70728      1075.45028        47.50028
G17  20704595.82426      1484.35026        39.60026
G19  21959505.76828      2962.40028        47.80028
G22  20695018.95428       -94.35028        48.10028
G30  20934539.63726     -1434.90026        36.20026
R06  21352855.94326      -106.30026        40.70026
R18  21875624.13825      3824.30025        35.40025
R16  20609173.38328      1301.95028        52.20028
R15  20615802.39429     -1310.55029        53.70029
R05  22042173.53827     -3973.65027        47.20027
R24  23192193.59628     -2673.75028        53.00028
R17  20822224.79128       968.55028        51.70028
E07  23882683.38026      -539.86426        37.30026
E08  25548359.95626     -2816.83226        36.30026
E27  25792270.50027      1646.22127        47.10027
E29  26420098.86327      2062.37927        42.20027
E30  23579734.10728      -220.09428        48.90028
E34  27627320.82127      2523.92627        45.80027
E36  27614638.40128      1043.31728        53.00028
> 2025 11 28 22 57 37.4429916  0 24                      
G01  23924720.87828      1253.23228        50.00028
G02  24570309.24629     -1045.46229        53.50029
G07  22734890.78026     -2330.44326        36.00026
G13  20788209.73927       167.15027        47.20027
G14  20400341.85427      -511.50027        47.20027
G15  22491971.94928      1106.45528        47.80028
G17  20704326.91026      1513.06026        41.00026
G19  21958940.95928      2993.35028        48.60028
G22  20695031.24527       -63.90027        47.00027
G30  20934812.44826     -1405.60026        37.00026
R06  21352867.93426       -75.90726        39.50026
R18  21874896.84125      3853.75025        34.80025
R16  20608925.75528      1334.15628        52.00028
R15  20616046.42529     -1279.90029        54.30029
R05  22042915.22527     -3942.20027        43.90027
R24  23192688.55328     -2642.24228        53.30028
R17  20822030.22628       999.20028        49.60028
E07  23882780.51226      -509.90426        37.30026
E08  25548884.29325     -2787.50025        34.10025
E27  25791953.02028      1676.29328        48.10028
E29  26419706.13526      2092.50726        40.80026
E30  23579772.48028      -189.93128        48.80028
E34  27626836.05727      2554.24127        45.80027
E36  27614439.33929      1073.27829        53.50029
> 2025 11 28 22 57 38.4429916  0 23                      
G01  23924483.74228      1244.10028        52.10028
G02  24570508.00829     -1054.80029        54.90029
G13  20788177.36128       158.55028        48.10028
G14  20400440.48627      -518.45027        47.40027
G15  22491759.69627      1097.25027        46.30027
G17  20704039.40926      1504.40026        39.80026
G19  21958370.75328      2985.30028        48.50028
G22  20695045.03628       -71.40028        48.10028
G30  20935083.76026     -1412.66426        37.00026
R06  21352867.33526       -82.53126        40.50026
R18  21874156.35426      3848.10026        36.60026
R16  20608676.62728      1325.75028        52.50028
R15  20616286.55929     -1287.20029        53.50029
R05  22043656.31127     -3949.65027        46.70027
R24  23193186.50829     -2651.15029        53.80029
R17  20821838.05928       991.55028        51.30028
E07  23882883.04126      -517.30026        37.00026
E08  25549422.12026     -2791.96426        37.30026
E27  25791637.33828      1668.92028        48.10028
E29  26419303.81427      2087.21927        41.80027
E30  23579808.75528      -196.09028        48.80028
E34  27626353.09127      2547.01127        46.10027
E36  27614236.37928      1065.74128        52.80028
> 2025 11 28 22 57 39.4429916  0 24                      
G01  23924251.40328      1210.50028        49.60028
G02  24570713.36629     -1088.40029        54.10029
G07  22735758.97925     -2372.00025        34.00025
G13  20788153.07827       124.90027        45.00027
G14  20400546.61328      -551.70028        47.90028
G15  22491555.83727      1063.85027        47.10027
G17  20703758.20426      1473.05026        38.30026
G19  21957806.24428      2952.70028        48.90028
G22  20695066.32128      -104.85028        47.50028
G30  20935362.26726     -1446.85026        37.00026
R06  21352900.01226      -116.60026        40.30026
R18  21873441.34926      3813.35026        36.70026
R16  20608433.19628      1291.90028        52.40028
R15  20616527.29229     -1320.50029        54.40029
R05  22044406.69227     -3983.35027        45.30027
R24  23193679.66728     -2685.20028        53.10028
R17  20821651.58828       956.95028        50.10028
E07  23882988.86826      -551.35026        40.50026
E08  25549956.65026     -2827.75026        38.90026
E27  25791324.05527      1636.64227        47.20027
E29  26418912.88427      2050.85027        42.60027
E30  23579851.02628      -229.95028        49.20028
E34  27625869.82527      2514.69127        46.50027
E36  27614037.01729      1033.07329        53.60029
> 2025 11 28 22 57 40.4429916  0 24                      
G01  23924018.16428      1199.09328        51.60028
G02  24570921.42229     -1099.79029        54.70029
G07  22736230.25325     -2383.77125        34.50025
G13  20788126.39727       112.94827        45.00027
G14  20400653.93828      -563.14328        47.70028
G15  22491355.87627      1052.32727        47.20027
G17  20703481.49525      1459.00425        34.80025
G19  21957243.83428      2940.57528        48.20028
G22  20695091.20428      -115.98928        48.00028
G30  20935643.17326     -1458.83726        37.20026
R06  21352911.10426      -130.42226        40.60026
R18  21872755.12426      3802.62426        38.40026
R16  20608196.36028      1280.63528        52.80028
R15  20616777.91929     -1332.26429        54.60029
R05  22045137.58627     -3995.29527        46.60027
R24  23194189.31429     -2697.17929        54.00029
R17  20821479.50728       944.82528        51.10028
E07  23883095.29426      -562.36226        39.20026
E08  25550491.78026     -2838.46026        37.40026
E27  25791012.87127      1624.69527        45.70027
E29  26418523.15427      2040.47527        42.90027
E30  23579894.49628      -241.61328        49.10028
E34  27625392.55627      2502.95227        46.20027
E36  27613841.55228      1021.00028        53.30028
> 2025 11 28 22 57 41.4429916  0 24                      
G01  23923789.42228      1203.14228        50.60028
G02  24571131.87729     -1095.82629        54.10029
G07  22736683.23926     -2379.51726        38.20026
G13  20788105.11127       116.27227        45.70027
G14  20400758.56628      -558.86328        47.80028
G15  22491150.81727      1056.22527        47.30027
G17  20703211.68227      1463.10827        42.20027
G19  21956688.61828      2944.74528        48.40028
G22  20695110.39027      -111.79327        47.40027
G30  20935908.78926     -1454.67726        37.90026
R06  21352948.87826      -126.85826        39.80026
R18  21872055.10925      3806.85525        34.60025
R16  20607959.22428      1285.07128        52.70028
R15  20617025.84729     -1327.87729        54.50029
R05  22045881.07127     -3990.82527        45.60027
R24  23194689.06829     -2693.26329        53.60029
R17  20821301.13028       948.58628        49.10028
E07  23883202.62026      -558.27926        40.30026
E08  25551026.61026     -2833.99526        36.10026
E27  25790704.98428      1629.18828        47.50028
E29  26418133.72426      2044.56226        41.20026
E30  23579939.76528      -237.20828        49.30028
E34  27624915.88627      2507.46827        45.60027
E36  27613644.58929      1025.12929        53.70029
> 2025 11 28 22 57 42.4429916  0 24                      
G01  23923559.48228      1214.24728        51.70028
G02  24571339.63329     -1084.74929        55.40029
G07  22737135.62626     -2371.25126        39.40026
G13  20788075.13227       127.59927        44.20027
G14  20400862.29428      -547.71328        47.60028
G15  22490946.65927      1066.96627        47.10027
G17  20702933.47526      1472.01126        37.50026
G19  21956124.10927      2955.91227        47.40027
G22  20695128.37828      -100.64228        48.40028
G30  20936195.39127     -1443.52227        43.10027
R06  21352973.46126      -115.94426        39.80026
R18  21871326.01326      3818.29426        37.40026
R16  20607716.09228      1296.42928        52.40028
R15  20617272.27729     -1316.47029        54.00029
R05  22046637.74727     -3979.52527        46.40027
R24  23195195.71728     -2682.09428        52.60028
R17  20821130.84828       959.25828        52.00028
E07  23883307.54726      -547.45026        39.80026
E08  25551570.73326     -2824.00626        36.50026
E27  25790392.60028      1640.30628        47.60028
E29  26417744.59326      2055.71926        40.20026
E30  23579983.23428      -226.01028        49.40028
E34  27624438.61628      2518.68328        48.10028
E36  27613450.62328      1036.07028        52.80028
> 2025 11 28 22 57 43.4429916  0 24                      
G01  23923327.74228      1242.73628        51.20028
G02  24571539.89429     -1056.34529        55.00029
G07  22737588.01326     -2340.71526        40.80026
G13  20788048.15127       155.43027        44.70027
G14  20400963.92427      -519.96127        47.30027
G15  22490744.89827      1094.86227        45.80027
G17  20702647.17326      1502.20026        36.80026
G19  21955564.39626      2984.26326        38.50026
G22  20695146.96528       -72.37828        48.40028
G30  20936462.50627     -1415.58027        44.90027
R06  21352982.75526       -88.53726        40.20026
R18  21870609.80926      3847.47926        40.60026
R16  20607467.86428      1325.31428        52.60028
R15  20617513.61029     -1287.62029        53.80029
R05  22047376.73627     -3951.06727        42.50027
R24  23195689.77528     -2654.00928        53.00028
R17  20820946.77628       987.53728        52.00028
E07  23883411.57526      -520.27126        41.40026
E08  25552117.25526     -2795.72526        38.10026
E27  25790077.81828      1667.69828        47.70028
E29  26417352.16526      2082.94026        40.60026
E30  23580024.30628      -198.71428        49.10028
E34  27623952.65328      2546.16828        48.10028
E36  27613247.66428      1063.21228        52.80028
> 2025 11 28 22 57 44.4429916  0 24                      
G01  23923089.70728      1233.75028        51.30028
G02  24571745.85229     -1064.90029        55.50029
G07  22738035.00326     -2348.60026        37.20026
G13  20788020.87027       147.35027        45.00027
G14  20401065.85327      -527.50027        47.30027
G15  22490536.84327      1085.85027        47.10027
G17  20702362.07026      1494.10026        35.70026
G19  21954996.88926      2975.00026        39.20026
G22  20695160.15628       -79.95028        48.30028
G30  20936730.22027     -1423.55027        44.80027
R06  21353000.44326       -95.36326        39.60026
R18  21869880.41427      3838.85027        42.30027
R16  20607220.23528      1317.30028        52.70028
R15  20617763.33729     -1295.60029        53.60029
R05  22048116.62427     -3958.25027        41.70027
R24  23196186.23228     -2663.30028        52.20028
R17  20820764.20228       979.25028        52.00028
E07  23883508.10927      -527.55827        41.60027
E08  25552646.38826     -2800.68226        37.40026
E27  25789760.63728      1660.65628        48.40028
E29  26416953.14126      2075.75226        41.20026
E30  23580062.38028      -203.51828        48.50028
E34  27623470.58627      2541.56127        46.40027
E36  27613049.20128      1056.03028        53.00028
> 2025 11 28 22 57 45.4429916  0 23                      
G01  23922861.26528      1197.25028        50.80028
G02  24571954.20729     -1102.60029        55.20029
G07  22738478.39626     -2385.10026        39.80026
G13  20787996.58727       109.60027        44.40027
G14  20401165.98427      -563.90027        47.20027
G15  22490333.28328      1049.35028        48.40028
G17  20702077.56726      1455.30026        40.20026
G22  20695180.84228      -116.95028        48.10028
G30  20937003.93127     -1460.55027        43.60027
R06  21353043.01326      -134.70026        39.50026
R18  21869195.98826      3802.00026        40.70026
R16  20606979.50228      1280.00028        53.00028
R15  20618007.36829     -1332.95029        54.00029
R05  22048850.21626     -3996.75026        39.80026
R24  23196683.58729     -2700.10029        53.50029
R17  20820586.72528       941.00028        52.50028
E07  23883615.43426      -564.01826        41.10026
E08  25553173.42326     -2836.85026        36.90026
E27  25789450.95227      1624.42827        46.70027
E29  26416564.31027      2039.37927        42.60027
E30  23580103.45128      -242.70028        48.80028
E34  27622992.71728      2502.55028        49.10028
E36  27612850.13928      1019.49828        53.30028
> 2025 11 28 22 57 46.4429916  0 24                      
G01  23922633.42328      1186.81128        51.00028
G02  24572162.56329     -1112.58029        54.80029
G07  22738929.58426     -2395.06926        36.80026
G13  20787974.10227        99.67827        44.80027
G14  20401277.20727      -573.84127        46.60027
G15  22490135.42028      1038.67128        48.30028
G17  20701802.95726      1446.38926        37.40026
G19  21953809.41126      2949.50026        39.40026
G22  20695202.12728      -126.83628        48.00028
G30  20937287.23527     -1470.32327        44.60027
R06  21353044.81226      -145.51726        39.00026
R18  21868468.99127      3790.86227        41.90027
R16  20606740.86728      1270.34828        52.70028
R15  20618262.19129     -1342.57029        54.30029
R05  22049612.58826     -4006.58226        41.30026
R24  23197191.13628     -2710.75128        52.80028
R17  20820409.84728       930.48128        52.20028
E07  23883722.46026      -573.25026        41.00026
E08  25553725.94126     -2847.60726        38.50026
E27  25789140.36727      1615.84327        47.10027
E29  26416173.98027      2030.56327        42.20027
E30  23580151.11828      -250.64528        48.30028
E34  27622515.14828      2494.47928        48.20028
E36  27612659.47128      1010.58128        53.00028
> 2025 11 28 22 57 47.4429916  0 24                      
G01  23922404.38128      1206.70028        51.40028
G02  24572372.71829     -1092.85029        55.60029
