     4.01           OBSERVATION DATA    M                   RINEX VERSION / TYPE
GnssLogger          samsung 12          20251128 224543 UTC PGM / RUN BY / DATE
Google GnssLogger                                           MARKER NAME
Unknown                                                     MARKER NUMBER
Unknown             Unknown                                 OBSERVER / AGENCY
Unknown             GnssLogger          v3.1.1.1            REC # / TYPE / VERS
Unknown             Unknown                                 ANT # / TYPE
        0.0000        0.0000        0.0000                  ANTENNA: DELTA H/E/N
G    3 C1C D1C S1C                                          SYS / # / OBS TYPES
R    3 C1C D1C S1C                                          SYS / # / OBS TYPES
E    3 C1C D1C S1C                                          SYS / # / OBS TYPES
  2025    11    28    22    45   43.0000000     GPS         TIME OF FIRST OBS
 7 R05  1 R06 -4 R15  0 R16 -1 R17  4 R18 -3 R24  2         GLONASS SLOT / FRQ #
samsung SM-G781U1 (Android 12) HW Year: 2019 HW Model:      COMMENT
qcom,SM8250,                                                COMMENT
                                                            END OF HEADER
> 2025 11 28 22 45 43.4429919  0 23                      
G01  24112974.54928      1531.94628        52.20028
G02  24451089.17728      -686.51928        51.40028
G07  22430357.60127     -2129.31027        42.80027
G13  20840519.52327       622.97627        43.00027
G14  20340448.31526      -347.72426        37.20026
G15  22670771.36626      1543.68526        39.60026
G17  20934027.18927      1885.77027        41.80027
G19  22377154.03328      3176.75928        48.70028
G22  20697037.65327       116.98027        43.20027
R06  21381742.64225       528.50125        35.00025
R18  22401395.55125      4025.30025        32.80025
R16  20791958.24128      1426.25128        50.40028
R15  20450369.61827     -1179.33527        43.30027
R05  21528927.54828     -3718.43228        48.40028
R24  22868202.98728     -2187.03028        50.50028
R17  20991941.39528      1560.78028        48.10028
E07  23832634.42527      -206.73127        43.20027
E08  25177322.31627     -2656.49027        45.70027
E27  26024045.04327      1762.22827        43.80027
E29  26714793.24726      2267.42526        40.60026
E30  23559620.02826       -82.79126        40.90026
E34  27973068.66227      2556.90427        43.80027
E36  27775678.11228      1317.02528        51.30028
> 2025 11 28 22 45 44.4429919  0 24                      
G01  24112679.55328      1547.10028        51.20028
G02  24451223.78428      -671.45028        51.60028
G07  22430764.41927     -2115.45027        43.60027
G13  20840404.40227       636.90027        45.70027
G14  20340517.86626      -332.65026        38.50026
G15  22670485.06426      1557.99326        36.80026
G17  20933668.63727      1900.10027        46.60027
G19  22376545.15428      3191.90028        49.00028
G22  20697011.27128       131.95028        48.00028
G30  20760819.39826     -1123.20026        38.20026
R06  21381649.10626       542.55026        37.40026
R18  22400641.27326      4037.60026        37.40026
R16  20791686.02929      1441.65029        53.70029
R15  20450595.96127     -1163.65027        46.80027
R05  21529622.76628     -3703.60028        49.20028
R24  22868608.30628     -2172.35028        50.60028
R17  20991637.40627      1575.60027        46.40027
E07  23832673.99727      -193.28127        44.90027
E08  25177825.66827     -2642.56427        45.40027
E27  26023707.47627      1776.05127        46.80027
E29  26714358.84827      2281.44527        44.90027
E30  23559629.02227       -68.90527        44.00027
E34  27972578.80127      2570.96427        45.30027
E36  27775428.08528      1330.82628        52.40028
> 2025 11 28 22 45 45.4429919  0 24                      
G01  24112384.85728      1567.00628        49.80028
G02  24451346.69928      -651.81128        51.70028
G07  22431164.34227     -2095.06927        43.60027
G13  20840279.38927       656.51227        46.20027
G14  20340589.51727      -312.99427        42.20027
G15  22670182.57326      1577.36626        36.60026
G17  20933306.48728      1919.69828        47.90028
G19  22375936.27628      3211.50128        49.70028
G22  20696981.59228       151.47728        48.70028
G30  20761032.25027     -1103.85827        42.70027
R06  21381523.19426       562.60526        37.30026
R18  22399867.20926      4058.02726        40.30026
R16  20791415.01729      1461.62829        53.50029
R15  20450808.21427     -1143.99427        46.70027
R05  21530310.49028     -3683.50728        49.00028
R24  22869017.82228     -2152.69228        49.90028
R17  20991345.40827      1594.96327        46.70027
E07  23832713.27027      -173.74027        41.70027
E08  25178326.92127     -2622.90227        44.60027
E27  26023368.11127      1795.78927        46.70027
E29  26713923.55027      2301.03227        44.40027
E30  23559641.61427       -49.27127        45.10027
E34  27972085.64227      2590.85127        46.50027
E36  27775169.66428      1350.26928        52.40028
> 2025 11 28 22 45 46.4429919  0 24                      
G01  24112084.76528      1583.91828        50.00028
G02  24451466.31628      -635.06928        50.80028
G07  22431563.66627     -2077.88727        43.40027
G13  20840156.47427       672.91127        47.40027
G14  20340641.08127      -296.21627        42.40027
G15  22669877.38426      1594.70526        41.00026
G17  20932943.13928      1936.79428        48.60028
G19  22375323.50028      3228.75428        49.60028
G22  20696951.31327       168.29527        47.30027
G30  20761245.70327     -1087.24327        42.80027
R06  21381441.05026       579.59726        37.60026
R18  22399118.32726      4075.76626        41.10026
R16  20791140.70728      1478.85728        52.60028
R15  20451013.57227     -1126.69827        46.90027
R05  21530994.91628     -3666.01028        48.20028
R24  22869410.25128     -2135.58528        50.30028
R17  20991050.11227      1612.15727        46.20027
E07  23832741.45026      -158.16226        40.70026
E08  25178823.67727     -2604.78627        45.50027
E27  26023022.15127      1811.58327        46.00027
E29  26713483.45427      2316.78227        43.10027
E30  23559647.31027       -31.13127        44.30027
E34  27971595.18228      2609.18328        48.10028
E36  27774913.34228      1368.34528        52.30028
> 2025 11 28 22 45 47.4429919  0 24                      
G01  24111787.67128      1557.95028        48.90028
G02  24451589.83128      -660.40028        51.10028
G07  22431963.58927     -2102.80027        43.60027
G13  20840028.76227       647.20027        46.10027
G14  20340707.33527      -320.75027        43.60027
G15  22669574.59426      1568.90026        37.30026
G17  20932580.09028      1911.00028        48.50028
G19  22374713.72228      3203.40028        49.80028
G22  20696917.73628       143.75028        48.70028
G30  20761448.36227     -1112.45027        41.70027
R06  21381332.52625       552.05025        35.30025
R18  22398363.15027      4049.80027        42.10027
R16  20790866.69628      1453.85028        53.00028
R15  20451226.12527     -1151.85027        46.40027
R05  21531689.23628     -3691.75028        49.30028
R24  22869818.26828     -2162.00028        49.40028
R17  20990749.12127      1585.75027        46.00027
E07  23832772.32926      -182.41526        38.50026
E08  25179324.33027     -2631.55027        45.30027
E27  26022683.38527      1787.81427        45.70027
E29  26713046.35727      2292.96527        44.10027
E30  23559659.30127       -56.85027        45.70027
E34  27971099.32528      2583.10028        48.30028
E36  27774657.31928      1342.15028        52.80028
> 2025 11 28 22 45 48.4429919  0 24                      
G01  24111492.67528      1530.35028        49.70028
G02  24451720.24028      -689.20028        51.10028
G07  22432362.31327     -2132.10027        44.30027
G13  20839906.14727       619.00027        46.90027
G14  20340768.19327      -349.40027        44.50027
G15  22669271.20426      1538.05026        37.30026
G17  20932214.94328      1882.65028        48.00028
G19  22374107.54228      3174.95028        50.30028
G22  20696900.04828       115.10028        48.70028
G30  20761660.31627     -1140.95027        42.60027
R06  21381211.40926       523.70026        36.90026
R18  22397598.37927      4020.60027        42.00027
R16  20790595.08528      1425.30028        53.10028
R15  20451438.37827     -1180.05027        46.80027
R05  21532382.35628     -3720.95028        49.80028
R24  22870222.08928     -2191.30028        49.50028
R17  20990459.82127      1556.20027        46.00027
E07  23832816.39926      -210.34326        38.70026
E08  25179827.38227     -2659.15027        45.90027
E27  26022347.61827      1760.09827        46.60027
E29  26712613.15727      2265.00127        43.30027
E30  23559671.29327       -85.55027        46.30027
E34  27970611.56328      2555.65028        48.10028
E36  27774405.79328      1313.80028        53.30028
> 2025 11 28 22 45 49.4429919  0 24                      
G01  24111202.17628      1526.11028        49.70028
G02  24451849.45128      -693.26728        51.20028
G07  22432769.13127     -2135.59527        44.60027
G13  20839789.82827       614.70727        45.70027
G14  20340832.94827      -353.35527        43.40027
G15  22668993.89626      1535.27526        40.00026
G17  20931860.28928      1878.34328        48.40028
G19  22373502.56028      3171.23328        50.60028
G22  20696873.66728       111.18928        48.10028
G30  20761882.16227     -1144.78327        42.50027
R06  21381132.56426       519.19226        37.80026
R18  22396846.80026      4017.32626        40.80026
R16  20790341.16029      1421.28329        53.90029
R15  20451662.02327     -1184.30627        47.20027
R05  21533080.57328     -3724.95328        47.80028
R24  22870628.00828     -2195.33028        50.80028
R17  20990168.42327      1552.07127        46.20027
E07  23832849.67526      -214.85626        41.00026
E08  25180332.53327     -2662.92727        46.50027
E27  26022013.04927      1756.04627        46.40027
E29  26712182.95527      2261.00827        44.80027
E30  23559687.78227       -89.18527        46.10027
E34  27970126.79828      2551.68628        47.90028
E36  27774154.26728      1309.78928        52.70028
> 2025 11 28 22 45 50.4429919  0 24                      
G01  24110910.47828      1527.08828        49.90028
G02  24451976.86328      -692.44628        50.80028
G07  22433173.85127     -2134.48627        43.10027
G13  20839677.40627       615.39627        44.80027
G14  20340900.40227      -352.23327        43.00027
G15  22668696.50226      1536.27826        41.40026
G17  20931501.13728      1879.20228        47.80028
G19  22372902.37628      3172.38028        51.10028
G22  20696850.88227       112.21227        47.10027
G30  20762095.91427     -1143.61527        43.50027
R06  21381030.63426       519.78626        36.90026
R18  22396098.51826      4018.72526        38.80026
R16  20790068.04929      1422.48029        54.30029
R15  20451874.57627     -1183.20627        47.40027
R05  21533773.69328     -3723.84628        48.20028
R24  22871045.91828     -2194.68328        51.20028
R17  20989883.92027      1552.68927        47.10027
E07  23832891.34727      -213.72127        42.70027
E08  25180841.58027     -2661.77627        44.50027
E27  26021679.08027      1757.29227        46.20027
E29  26711754.85127      2262.00427        45.70027
E30  23559704.27027       -87.90927        43.80027
E34  27969641.13428      2553.08528        48.50028
E36  27773904.24028      1310.81028        52.20028
> 2025 11 28 22 45 51.4429919  0 24                      
G01  24110618.78028      1537.76428        48.80028
G02  24452108.47228      -681.87028        50.60028
G07  22433577.07227     -2123.85027        43.30027
G13  20839554.19127       626.09427        45.70027
G14  20340976.84927      -341.13127        42.50027
G15  22668412.89825      1545.80025        35.10025
G17  20931139.88728      1890.07428        49.10028
G19  22372295.89628      3183.59228        50.20028
G22  20696832.89528       123.26728        47.60028
G30  20762307.26827     -1132.77227        42.80027
R06  21380936.20026       529.97326        37.10026
R18  22395345.43926      4030.12226        40.50026
R16  20789794.63929      1433.85929        54.10029
R15  20452091.02627     -1171.90727        46.50027
R05  21534465.91328     -3712.67228        49.00028
R24  22871451.23828     -2184.25228        50.10028
R17  20989591.92227      1563.35727        46.10027
E07  23832931.81927      -201.83227        41.90027
E08  25181347.33027     -2649.74227        44.50027
E27  26021342.11427      1769.46827        46.80027
E29  26711324.04927      2274.14827        45.20027
E30  23559718.06127       -75.75027        44.30027
E34  27969153.97228      2565.42228        49.40028
E36  27773653.31428      1322.80128        52.10028
> 2025 11 28 22 45 52.4429919  0 24                      
G01  24110323.48428      1569.55028        49.80028
G02  24452236.78328      -650.50028        50.70028
G07  22433976.69527     -2091.95027        43.60027
G13  20839433.07527       657.05027        47.00027
G14  20341041.00427      -309.90027        43.60027
G15  22668114.00526      1578.15026        39.30026
G17  20930774.74028      1921.15028        48.90028
G19  22371687.01728      3214.60028        50.20028
G22  20696805.31428       154.20028        47.60028
G30  20762517.42227     -1101.40027        42.30027
R06  21380819.88026       561.00026        37.30026
R18  22394598.35626      4062.65026        41.10026
R16  20789526.92429      1465.70029        53.80029
R15  20452312.57327     -1140.20027        47.00027
R05  21535158.73428     -3681.70028        48.30028
R24  22871853.55928     -2152.20028        50.50028
R17  20989294.82827      1595.00027        46.10027
E07  23832965.09627      -171.68227        41.50027
E08  25181846.48427     -2619.15427        46.10027
E27  26021001.25027      1800.08227        47.20027
E29  26710886.65227      2304.71227        45.30027
E30  23559729.75227       -45.27927        45.00027
E34  27968662.61228      2596.11028        49.20028
E36  27773399.09028      1353.17728        52.00028
> 2025 11 28 22 45 53.4429919  0 24                      
G01  24110025.19128      1558.82528        49.60028
G02  24452357.89928      -662.94028        50.30028
G07  22434376.91827     -2102.94327        43.20027
G13  20839309.86027       646.02927        46.70027
G14  20341104.26127      -320.26027        43.80027
G15  22667806.11826      1567.07226        40.10026
G17  20930409.89328      1910.26028        48.20028
G19  22371075.14128      3204.06928        50.00028
G22  20696775.93427       143.96427        46.90027
G30  20762734.47227     -1112.22227        41.90027
R06  21380720.94926       550.01926        37.30026
R18  22393832.08726      4050.57426        40.60026
R16  20789251.11529      1455.09929        53.60029
R15  20452527.52427     -1150.55827        47.10027
R05  21535844.05928     -3692.09628        48.60028
R24  22872257.67928     -2164.93428        50.70028
R17  20988993.53627      1583.34527        45.80027
E07  23832997.47327      -183.61327        41.90027
E08  25182346.53827     -2630.86427        45.00027
E27  26020662.48427      1788.37027        46.30027
E29  26710451.95327      2292.80327        44.80027
E30  23559740.84527       -56.90327        44.10027
E34  27968169.45327      2584.72527        47.30027
E36  27773143.36728      1341.41928        51.90028
> 2025 11 28 22 45 54.4429919  0 24                      
G01  24109727.79728      1542.50028        48.40028
G02  24452485.61028      -677.36628        50.90028
G07  22434779.24027     -2119.50027        43.40027
G13  20839185.74627       630.15027        46.50027
G14  20341161.82127      -336.50027        43.80027
G15  22667528.21125      1550.95325        34.40025
G17  20930046.24428      1893.75028        48.80028
G19  22370469.56028      3188.55028        50.10028
G22  20696747.45428       127.60028        48.60028
G30  20762938.63127     -1128.25027        41.60027
R06  21380620.81826       532.15026        36.10026
R18  22393079.60826      4035.07426        41.10026
R16  20788987.89729      1439.10029        53.80029
R15  20452747.57127     -1166.25027        46.80027
R05  21536541.37728     -3708.45028        49.20028
R24  22872666.89628     -2179.95428        49.50028
R17  20988703.93727      1566.10027        46.80027
E07  23833039.44426      -198.46126        40.60026
E08  25182849.89027     -2645.54327        45.60027
E27  26020323.71927      1773.86727        47.20027
E29  26710014.85527      2278.23127        46.00027
E30  23559754.93527       -71.54727        45.70027
E34  27967677.49428      2570.19328        48.90028
E36  27772886.44528      1326.57128        52.50028
> 2025 11 28 22 45 55.4429919  0 24                      
G01  24109435.19928      1544.29628        50.20028
G02  24452614.52128      -675.94128        51.30028
G07  22435174.66627     -2116.86127        42.60027
G13  20839070.32628       631.37928        47.50028
G14  20341226.87627      -334.31227        44.00027
G15  22667213.42926      1552.37826        41.40026
G17  20929683.79528      1895.77628        48.20028
G19  22369862.78028      3190.25428        50.70028
G22  20696724.07027       129.97127        47.40027
G30  20763156.58027     -1126.54227        43.30027
R06  21380507.79626       534.83426        37.20026
R18  22392302.84526      4037.11626        40.30026
R16  20788711.48929      1441.23529        53.80029
R15  20452966.12028     -1164.45728        47.90028
R05  21537235.09628     -3706.44528        49.00028
R24  22873069.51728     -2178.65328        51.10028
R17  20988406.54327      1568.28627        46.20027
E07  23833068.82427      -196.85527        41.70027
E08  25183353.24127     -2643.71127        45.90027
E27  26019985.55327      1775.76527        46.90027
E29  26709582.85527      2280.05127        45.10027
E30  23559767.22727       -69.67827        44.40027
E34  27967190.33128      2572.27728        48.40028
E36  27772636.41828      1328.30028        52.30028
> 2025 11 28 22 45 56.4429919  0 24                      
G01  24109143.50128      1542.24028        49.90028
G02  24452745.23128      -678.22428        51.00028
G07  22435585.38127     -2118.85427        43.30027
G13  20838949.21028       628.96928        47.80028
G14  20341284.43627      -336.22927        43.30027
G15  22666922.33025      1550.03225        34.30025
G17  20929327.04228      1893.56628        48.70028
G19  22369252.70328      3188.30728        50.50028
G22  20696698.58828       127.97828        47.60028
G30  20763373.63027     -1128.53427        42.70027
R06  21380407.96626       532.18226        37.00026
R18  22391553.36426      4035.31326        40.90026
R16  20788442.87429      1439.31229        53.80029
R15  20453196.36128     -1166.37228        47.70028
R05  21537930.31528     -3708.54028        50.00028
R24  22873479.93328     -2181.15228        50.30028
R17  20988118.14227      1565.78727        46.30027
E07  23833106.59826      -198.99626        41.40026
E08  25183854.49427     -2645.63427        45.50027
E27  26019648.88627      1773.90127        47.20027
E29  26709149.65427      2278.01127        46.10027
E30  23559782.81627       -71.54927        45.10027
E34  27966701.66928      2570.63528        49.70028
E36  27772381.59428      1326.26728        52.30028
> 2025 11 28 22 45 57.4429919  0 23                      
G01  24108847.60628      1549.95028        48.70028
G02  24452873.24228      -670.59128        50.40028
G07  22435986.20427     -2111.19827        42.40027
G13  20838829.89228       636.24028        47.70028
G14  20341342.59627      -328.67927        42.80027
G17  20928970.28928      1900.88728        49.40028
G19  22368647.12228      3196.04328        49.90028
G22  20696677.90228       135.55628        47.70028
G30  20763582.28527     -1121.12227        41.80027
R06  21380293.14526       539.37526        35.80026
R18  22390795.18926      4043.07226        39.00026
R16  20788170.96329      1447.16129        53.60029
R15  20453413.71028     -1158.55728        47.50028
R05  21538619.83828     -3700.86728        49.50028
R24  22873889.75028     -2173.63928        49.60028
R17  20987823.44627      1573.00627        46.00027
E07  23833145.27127      -191.57127        41.80027
E08  25184358.74527     -2638.06227        45.50027
E27  26019308.62127      1781.57227        47.30027
E29  26708715.25527      2285.62027        46.30027
E30  23559793.60827       -63.89227        44.40027
E34  27966209.71028      2578.38128        49.50028
E36  27772130.06828      1333.67028        52.10028
> 2025 11 28 22 45 58.4429919  0 23                      
G01  24108549.61228      1572.63728        49.50028
G02  24453000.65428      -648.03028        50.70028
G07  22436387.32627     -2088.88527        43.30027
G13  20838705.47828       658.35428        48.00028
G14  20341406.15227      -306.12427        42.90027
G17  20928606.94128      1923.16228        49.10028
G19  22368035.54528      3219.05528        50.60028
G22  20696647.92328       158.10328        47.50028
G30  20763797.23627     -1098.69627        42.90027
R06  21380190.31625       561.97425        35.20025
R18  22390040.91126      4066.53926        40.40026
R16  20787900.25029      1470.17729        53.80029
R15  20453623.86527     -1135.53627        47.20027
R05  21539310.26028     -3678.15528        49.50028
R24  22874294.46928     -2150.70028        50.10028
R17  20987528.15127      1595.37427        46.30027
E07  23833178.24827      -170.27727        41.60027
E08  25184858.19927     -2616.48527        45.70027
E27  26018967.15827      1803.19827        47.00027
E29  26708278.45827      2307.19227        46.00027
E30  23559805.00027       -42.37827        44.50027
E34  27965715.95228      2600.14728        49.80028
E36  27771873.74628      1355.14028        52.20028
> 2025 11 28 22 45 59.4429919  0 23                      
G01  24108255.21628      1553.60028        49.20028
G02  24453125.36828      -667.10028        50.60028
G07  22436790.84727     -2107.50027        43.40027
G13  20838586.46128       639.70028        47.60028
G14  20341461.31327      -324.20027        42.60027
G17  20928237.89628      1905.00028        49.10028
G19  22367426.66728      3199.70028        50.20028
G22  20696617.34428       139.80028        47.50028
G30  20764013.38727     -1116.55027        43.50027
R06  21380091.38525       540.95025        35.30025
R18  22389287.23326      4047.30026        41.10026
R16  20787625.04129      1452.10029        53.70029
R15  20453831.32127     -1153.85027        47.40027
R05  21539994.98628     -3696.50028        49.40028
R24  22874688.99628     -2170.15028        50.30028
R17  20987227.75927      1576.60027        46.60027
E07  23833210.02627      -188.05427        41.90027
E08  25185361.25127     -2633.88927        45.80027
E27  26018627.19327      1785.80627        47.20027
E29  26707843.45927      2292.02027        45.90027
E30  23559813.99427       -59.79427        44.40027
E34  27965224.29228      2582.96528        49.80028
E36  27771618.02328      1339.92328        52.40028
> 2025 11 28 22 46 00.4429919  0 23                      
G01  24107961.42028      1517.00028        50.20028
G02  24453254.57828      -703.55028        51.00028
G07  22437191.37027     -2143.45027        44.10027
G13  20838465.34527       603.55027        47.20027
G14  20341531.76527      -360.55027        43.40027
G17  20927881.14328      1867.85028        48.60028
G19  22366818.98728      3163.30028        51.10028
G22  20696597.55827       103.55027        46.60027
G30  20764240.03027     -1152.85027        45.20027
R06  21379995.45126       505.10026        36.60026
R18  22388527.25927      4009.80027        42.30027
R16  20787358.82529      1414.55029        53.60029
R15  20454057.66528     -1190.65028        48.20028
R05  21540694.40228     -3734.60028        50.10028
R24  22875107.50728     -2207.50028        51.30028
R17  20986930.36427      1538.80027        46.20027
E07  23833251.09827      -224.13127        41.90027
E08  25185865.20227     -2669.84827        44.30027
E27  26018289.62727      1750.00127        46.70027
E29  26707410.85827      2254.05027        45.10027
E30  23559828.68427       -95.62727        44.30027
E34  27964735.93028      2547.22428        48.70028
E36  27771367.69628      1301.30028        52.00028
> 2025 11 28 22 46 01.4429919  0 24                      
G01  24107673.91928      1518.67328        47.70028
G02  24453387.38628      -702.46628        51.70028
G07  22437602.38527     -2141.58927        43.60027
G13  20838350.52427       604.47427        45.40027
G14  20341599.81727      -358.81127        43.90027
G15  22665449.45026      1525.15026        39.90026
G17  20927525.88928      1869.73928        49.30028
G19  22366219.70228      3165.32128        51.00028
G22  20696575.97328       105.28228        48.70028
G30  20764463.97527     -1151.76027        45.00027
R06  21379909.71025       507.10025        33.80025
R18  22387767.28526      4012.30926        40.80026
R16  20787088.71228      1416.99328        53.10028
R15  20454282.50927     -1188.80527        47.40027
R05  21541391.71928     -3732.03628        50.50028
R24  22875513.72528     -2206.66128        50.20028
R17  20986652.15727      1540.25427        46.10027
E07  23833290.97026      -221.37526        38.50026
E08  25186373.05127     -2666.95627        44.90027
E27  26017955.95828      1753.03828        47.80028
E29  26706980.05627      2256.72627        45.30027
E30  23559847.57127       -92.59127        46.30027
E34  27964248.16828      2550.46528        49.40028
E36  27771116.47028      1304.39628        53.20028
> 2025 11 28 22 46 02.4429919  0 24                      
G01  24107379.82228      1533.65028        48.70028
G02  24453521.09428      -687.50028        51.80028
G07  22438015.79927     -2126.85027        44.00027
G13  20838235.70428       618.85028        48.40028
G14  20341670.26927      -343.80027        43.20027
G15  22665142.46226      1540.80026        36.90026
G17  20927166.73828      1884.25028        48.70028
G19  22365614.42128      3180.95028        50.90028
G22  20696552.88927       120.85027        47.40027
G30  20764678.32627     -1136.95027        45.10027
R06  21379817.67425       520.35025        33.80025
R18  22387019.90326      4027.75026        40.30026
R16  20786816.50028      1432.25028        53.40028
R15  20454502.55728     -1173.45028        47.50028
R05  21542092.63428     -3716.85028        50.40028
R24  22875925.64028     -2190.85028        50.00028
R17  20986351.46527      1554.90027        46.20027
E07  23833329.64326      -207.46126        40.10026
E08  25186878.20127     -2652.86227        45.80027
E27  26017620.49027      1767.20427        46.60027
E29  26706552.25327      2270.74927        45.20027
E30  23559861.36127       -78.54527        44.50027
E34  27963761.90428      2564.75928        49.50028
E36  27770868.84228      1318.30528        52.90028
> 2025 11 28 22 46 03.4429919  0 24                      
G01  24107086.02628      1551.56728        49.20028
G02  24453651.80329      -669.94629        53.50029
G07  22438409.12727     -2108.72927        42.70027
G13  20838112.78928       636.14628        47.50028
G14  20341723.03227      -326.32927        43.30027
G15  22664857.36027      1557.35427        41.50027
G17  20926805.18827      1901.53127        47.40027
G19  22365007.94128      3198.38228        51.30028
G22  20696529.80528       137.67328        47.50028
G30  20764886.08227     -1119.97727        41.70027
R06  21379725.93825       539.40025        34.50025
R18  22386267.12426      4046.29726        37.80026
R16  20786554.48228      1450.11928        53.10028
R15  20454715.70928     -1155.68828        47.80028
R05  21542786.95328     -3699.44828        49.90028
R24  22876336.95528     -2173.90028        50.20028
R17  20986066.36327      1572.42027        44.70027
E07  23833373.71326      -190.31626        39.50026
E08  25187380.35327     -2635.58027        46.00027
E27  26017285.92227      1784.53527        46.40027
E29  26706117.85327      2287.97627        44.20027
E30  23559875.45227       -61.18827        45.20027
E34  27963272.04427      2582.14927        46.80027
E36  27770617.61528      1335.46328        51.50028
> 2025 11 28 22 46 04.4429919  0 24                      
G01  24106788.93128      1574.70828        48.50028
G02  24453780.41429      -646.93529        55.10029
G07  22438801.25526     -2085.49326        40.40026
G13  20837984.77728       658.82828        48.60028
G14  20341781.79228      -303.33228        48.60028
G15  22664560.56527      1580.06527        43.00027
G17  20926444.53828      1924.35328        48.50028
G19  22364397.86428      3221.32428        50.80028
G22  20696498.32627       160.71627        46.90027
G30  20765102.83226     -1096.53326        40.10026
R06  21379620.71126       561.53626        36.60026
R18  22385496.35726      4069.75926        39.80026
R16  20786286.46728      1473.71528        51.10028
R15  20454931.85929     -1132.17529        54.50029
R05  21543475.87628     -3676.13628        50.00028
R24  22876740.77628     -2150.56528        52.10028
R17  20985762.07327      1595.39327        43.30027
E07  23833408.78825      -171.40025        34.40025
E08  25187876.21027     -2613.53127        45.50027
E27  26016940.86127      1806.74027        47.20027
E29  26705676.55927      2310.02427        42.70027
E30  23559884.74528       -39.09728        48.50028
E34  27962778.58527      2604.45927        43.60027
E36  27770358.29528      1357.54628        49.30028
> 2025 11 28 22 46 05.4429919  0 24                      
G01  24106491.53728      1553.90028        48.30028
G02  24453904.22829      -667.80029        54.70029
G07  22439198.78026     -2106.10026        40.60026
G13  20837863.36128       638.65028        49.30028
G14  20341839.95128      -322.65028        48.40028
G15  22664259.87327      1560.75027        42.70027
G17  20926077.89227      1904.45027        47.20027
G19  22363786.28728      3200.25028        49.80028
G22  20696470.44627       140.45027        45.90027
G30  20765318.08326     -1117.00026        40.90026
R06  21379504.99126       538.30026        36.40026
R18  22384745.37726      4049.60026        37.30026
R16  20786013.35628      1454.05028        50.80028
R15  20455146.51129     -1151.85029        53.50029
R05  21544166.89828     -3696.10028        49.80028
R24  22877144.29728     -2171.80028        51.10028
R17  20985467.67727      1575.15027        43.00027
E07  23833430.07425      -194.10025        30.60025
E08  25188375.96427     -2630.65427        45.70027
E27  26016600.29628      1789.46128        47.80028
E29  26705241.86027      2292.77827        42.60027
E30  23559895.53828       -56.33528        49.00028
E34  27962283.92827      2587.55427        42.50027
E36  27770104.07128      1340.01828        49.80028
> 2025 11 28 22 46 06.4429919  0 24                      
G01  24106200.13928      1510.90028        49.30028
G02  24454037.33629      -711.25029        55.30029
G07  22439599.00326     -2150.20026        38.80026
G13  20837748.24128       595.50028        48.50028
G14  20341903.20728      -366.15028        47.90028
G15  22663963.67827      1516.15027        41.60027
G17  20925722.33827      1860.90027        46.60027
G19  22363184.00428      3158.30028        51.80028
G22  20696450.06027        97.35027        47.00027
G30  20765529.43726     -1160.65026        40.80026
R06  21379418.35126       494.95026        37.10026
R18  22383982.40526      4006.10026        35.90026
R16  20785742.04428      1409.05028        51.00028
R15  20455365.35929     -1196.25029        53.60029
R05  21544857.32028     -3740.15028        51.60028
R24  22877561.00828     -2216.25028        51.50028
R17  20985195.16626      1528.80026        40.30026
E07  23833483.13726      -232.75026        37.90026
E08  25188884.11227     -2675.70027        43.40027
E27  26016265.42827      1744.85027        47.10027
E29  26704809.25927      2248.35027        42.50027
E30  23559910.52728      -100.75028        48.80028
E34  27961799.16327      2543.35027        43.70027
E36  27769856.44228      1295.05028        48.20028
> 2025 11 28 22 46 07.4429919  0 24                      
G01  24105912.03828      1505.70728        48.00028
G02  24454171.64329      -716.34329        54.90029
G07  22440017.51327     -2154.62427        42.20027
G13  20837631.62227       589.83427        47.00027
G14  20341977.25628      -371.08428        49.20028
G15  22663679.77527      1510.79527        43.70027
G17  20925374.57927      1855.85827        45.80027
G19  22362584.41928      3153.13928        51.30028
G22  20696430.87327        92.95527        46.70027
G30  20765756.38026     -1165.37526        38.60026
R06  21379327.81326       489.82026        37.00026
R18  22383226.62926      4000.67626        38.50026
R16  20785476.42828      1405.20728        52.00028
R15  20455590.80328     -1200.62328        52.30028
R05  21545558.53428     -3745.87428        51.70028
R24  22877975.02128     -2221.71128        52.00028
R17  20984902.26827      1524.74327        44.30027
E07  23833526.30726      -234.65526        40.70026
E08  25189391.96127     -2678.94827        44.30027
E27  26015930.86027      1741.51227        47.10027
E29  26704379.35727      2244.56027        43.50027
E30  23559929.11428      -104.34428        48.50028
E34  27961314.09927      2539.71627        41.80027
E36  27769604.01728      1291.62428        49.90028
> 2025 11 28 22 46 08.4429918  0 24                      
G01  24105623.03828      1524.70028        49.00028
G02  24454307.44929      -697.65029        55.70029
G07  22440415.33826     -2135.45026        40.10026
G13  20837517.10128       608.00028        48.00028
G14  20342041.11228      -352.55028        48.60028
G15  22663388.67627      1529.70027        43.40027
G17  20925010.03127      1874.30027        47.00027
G19  22361980.93728      3172.20028        51.30028
G22  20696411.38727       111.50027        46.80027
G30  20765979.72527     -1146.45027        41.60027
R06  21379215.99126       509.10026        37.70026
R18  22382479.84626      4019.65026        38.10026
R16  20785215.60928      1424.60028        51.60028
R15  20455815.04828     -1181.60028        53.30028
R05  21546262.14728     -3726.55028        51.00028
R24  22878384.53828     -2202.85028        52.10028
R17  20984621.06326      1543.20026        41.20026
E07  23833571.57626      -217.20126        39.10026
E08  25189900.10927     -2661.22327        44.10027
E27  26015600.78827      1759.30227        47.10027
E29  26703952.15327      2262.12627        42.40027
E30  23559946.20328       -86.62628        48.60028
E34  27960826.63727      2557.66427        43.30027
E36  27769359.08728      1309.19128        48.60028
> 2025 11 28 22 46 09.4429918  0 24                      
G01  24105327.14328      1548.45028        48.10028
G02  24454435.46129      -673.90029        55.10029
G07  22440827.55227     -2111.55027        41.90027
G13  20837401.38127       630.95027        47.10027
G14  20342112.16328      -328.40028        49.30028
G15  22663099.07727      1553.40027        44.20027
G17  20924657.47527      1897.95027        46.20027
G19  22361373.85728      3196.00028        51.10028
G22  20696386.50427       134.55027        47.00027
G30  20766200.07326     -1123.60026        40.50026
R06  21379137.44526       533.30026        35.90026
R18  22381724.06926      4043.55026        38.50026
R16  20784947.59428      1448.40028        51.70028
R15  20456033.89628     -1157.80028        52.60028
R05  21546957.36628     -3702.55028        52.00028
R24  22878798.85128     -2178.25028        52.20028
R17  20984321.27127      1568.25027        43.50027
E07  23833608.45026      -193.75726        40.00026
E08  25190402.86127     -2637.61727        44.10027
E27  26015262.02328      1782.99528        47.50028
E29  26703517.45427      2285.84927        42.30027
E30  23559961.79228       -62.94128        48.30028
E34  27960340.37327      2581.57327        42.50027
E36  27769107.56128      1332.68328        50.10028
> 2025 11 28 22 46 10.4429918  0 24                      
G01  24105033.04728      1570.00528        48.80028
G02  24454561.97329      -652.47729        55.20029
G07  22441221.48026     -2090.07926        40.50026
G13  20837277.56728       652.61928        47.80028
G14  20342167.92428      -307.17128        48.80028
G15  22662805.58027      1574.56227        42.50027
G17  20924293.22727      1918.78027        47.20027
G19  22360764.67928      3218.01528        51.30028
G22  20696359.22327       156.63827        46.90027
G30  20766411.12727     -1100.87827        41.70027
R06  21379025.32326       553.91326        37.20026
R18  22380976.68626      4066.06626        38.50026
R16  20784671.78528      1470.44828        51.60028
R15  20456247.64828     -1135.43528        52.90028
R05  21547650.18628     -3680.32528        51.40028
R24  22879203.57128     -2157.15628        52.00028
R17  20984032.87027      1587.96727        41.60027
E07  23833637.83026      -173.68726        38.40026
E08  25190902.61527     -2617.10927        45.00027
E27  26014920.25928      1803.52428        47.70028
E29  26703080.05627      2306.23927        41.60027
E30  23559969.88628       -42.45228        48.70028
E34  27959847.21527      2602.26727        42.90027
E36  27768850.63928      1353.11028        49.50028
> 2025 11 28 22 46 11.4429918  0 24                      
G01  24104737.45228      1546.50028        48.80028
G02  24454693.28229      -676.05029        55.30029
G07  22441619.60426     -2115.00026        39.70026
G13  20837157.05028       628.95028        47.90028
G14  20342234.17828      -329.75028        48.00028
G15  22662516.58026      1547.65026        41.40026
G17  20923930.17927      1896.10027        47.30027
G19  22360152.20328      3194.85028        51.10028
G22  20696331.34227       133.90027        46.90027
G30  20766620.08226     -1124.55026        41.40026
R06  21378929.08926       531.65026        37.60026
R18  22380233.50126      4042.40026        38.00026
R16  20784399.27428      1446.90028        51.20028
R15  20456462.00028     -1158.55028        52.70028
R05  21548338.21028     -3704.85028        51.20028
R24  22879610.98928     -2181.45028        52.00028
R17  20983748.36727      1563.45027        41.50027
E07  23833679.20126      -195.84126        37.30026
E08  25191403.86827     -2639.02627        45.30027
E27  26014579.99528      1781.56228        47.80028
E29  26702644.15826      2284.31726        41.40026
E30  23559981.57828       -64.45628        48.70028
E34  27959354.05627      2580.43527        42.70027
E36  27768597.91428      1331.00928        49.10028
> 2025 11 28 22 46 12.4429918  0 24                      
G01  24104445.75328      1514.05028        48.60028
G02  24454821.59329      -708.45029        54.80029
G07  22442032.71827     -2145.30027        41.90027
G13  20837042.23028       596.35028        47.80028
G14  20342299.23328      -362.45028        49.00028
G15  22662222.48427      1517.50027        45.00027
G17  20923575.82427      1863.80027        46.20027
G19  22359547.22228      3162.25028        51.10028
G22  20696312.15527       101.30027        46.90027
G30  20766842.82826     -1157.20026        40.10026
R06  21378818.46626       496.20026        35.90026
R18  22379457.93826      4009.25026        37.40026
R16  20784126.46328      1414.45028        52.10028
R15  20456681.14828     -1191.20028        52.40028
R05  21549033.42928     -3737.35028        51.80028
R24  22880018.10728     -2214.60028        52.50028
R17  20983447.97527      1530.55027        43.60027
E07  23833720.57326      -227.86526        39.50026
E08  25191909.91827     -2670.99127        45.20027
E27  26014245.42728      1749.83728        48.40028
E29  26702211.25827      2252.39427        42.40027
E30  23559996.56828       -96.20728        48.90028
E34  27958867.19327      2548.82527        43.10027
E36  27768347.58728      1298.99928        51.10028
> 2025 11 28 22 46 13.4429918  0 24                      
G01  24104159.15228      1513.31828        49.10028
G02  24454957.39929      -709.56329        55.30029
G07  22442444.33326     -2147.27826        40.50026
G13  20836935.20428       595.43528        48.80028
G14  20342368.48528      -363.75028        48.70028
G15  22661930.48627      1517.06427        44.60027
G17  20923218.17127      1860.97127        46.70027
G19  22358947.93628      3161.61528        50.70028
G22  20696293.86827       100.61027        46.80027
G30  20767048.78527     -1158.85927        41.90027
R06  21378742.61826       494.06226        37.00026
R18  22378710.55526      4008.99026        38.30026
R16  20783865.34328      1413.90428        51.70028
R15  20456900.89628     -1193.11928        52.30028
R05  21549734.34328     -3738.06128        51.30028
R24  22880436.61728     -2215.76928        52.40028
R17  20983158.97526      1529.68126        40.90026
E07  23833765.54126      -229.00626        39.80026
E08  25192416.56727     -2671.91027        45.10027
E27  26013911.45828      1749.07028        47.70028
E29  26701784.95327      2251.38327        43.50027
E30  23560014.85528       -97.09528        49.00028
E34  27958379.73027      2548.21127        43.40027
E36  27768098.75928      1297.92428        49.90028
> 2025 11 28 22 46 14.4429918  0 24                      
G01  24103867.15427      1520.83027        46.90027
G02  24455090.50729      -702.21829        56.00029
G07  22442852.05126     -2138.15026        39.90026
G13  20836815.28727       603.09427        46.70027
G14  20342435.03928      -355.12528        48.30028
G15  22661644.48427      1524.88027        45.60027
G17  20922858.72027      1870.60027        46.20027
G19  22358348.95128      3169.80428        50.00028
G22  20696276.18027       108.68527        46.60027
G30  20767264.93627     -1148.85027        41.50027
R06  21378631.39526       502.41126        37.10026
R18  22377956.27726      4017.07126        37.90026
R16  20783601.22628      1422.23328        51.30028
R15  20457123.04228     -1182.85028        52.20028
R05  21550429.56228     -3729.90028        50.60028
R24  22880844.93528     -2208.43828        51.80028
R17  20982883.16627      1537.47327        43.90027
E07  23833807.51227      -219.98427        41.90027
E08  25192922.91627     -2662.69227        45.70027
E27  26013578.98827      1758.32727        46.90027
E29  26701353.55227      2260.59327        43.70027
E30  23560030.74428       -87.77828        48.60028
E34  27957896.76527      2557.54527        43.30027
E36  27767849.93228      1306.97228        49.50028
> 2025 11 28 22 46 15.4429918  0 24                      
G01  24103580.25328      1546.15028        48.80028
G02  24455222.11629      -677.90029        54.80029
G07  22443255.27226     -2112.80026        37.20026
G13  20836700.76627       627.65027        46.90027
G14  20342497.69628      -330.55028        47.50028
G15  22661351.88727      1549.00027        43.90027
G17  20922502.86727      1894.30027        46.90027
G19  22357738.27428      3194.70028        51.70028
G22  20696253.09628       133.45028        48.30028
G30  20767483.78427     -1124.80027        42.80027
R06  21378548.95326       526.75026        36.90026
R18  22377212.49226      4040.75026        39.20026
R16  20783330.81328      1448.40028        51.60028
R15  20457349.98529     -1158.70029        53.70029
R05  21551125.98028     -3705.00028        50.90028
R24  22881254.15128     -2182.35028        51.10028
R17  20982584.57326      1560.75026        40.40026
E07  23833845.28626      -196.50026        38.00026
E08  25193428.36627     -2638.97027        43.90027
E27  26013239.92327      1782.05327        46.90027
E29  26700919.15227      2284.23127        42.80027
E30  23560045.73428       -64.11028        49.00028
E34  27957404.20627      2581.48227        45.00027
E36  27767599.90528      1330.61228        49.00028
> 2025 11 28 22 46 16.4429919  0 24                      
G01  24103283.75828      1563.05228        49.60028
G02  24455353.42529      -660.35029        54.90029
G07  22443650.09826     -2098.19826        41.10026
G13  20836580.54927       643.86827        47.20027
G14  20342557.35528      -313.51428        47.60028
G15  22661052.69427      1565.06227        43.70027
G17  20922138.01927      1910.92727        46.40027
G19  22357128.49628      3211.21728        51.70028
G22  20696221.61828       150.21328        47.80028
G30  20767694.83827     -1108.53527        41.90027
R06  21378453.91826       543.27026        35.80026
R18  22376425.83726      4060.17726        37.20026
R16  20783062.79928      1464.67128        52.40028
R15  20457560.14028     -1141.28228        52.90028
R05  21551817.60128     -3688.04928        51.50028
R24  22881660.67028     -2166.60528        50.00028
R17  20982302.16827      1578.59827        42.50027
E07  23833886.95727      -181.06427        41.60027
E08  25193929.02027     -2623.25727        43.70027
E27  26012897.86027      1797.89527        46.30027
E29  26700486.25226      2300.05426        40.10026
E30  23560057.72528       -48.34028        48.80028
E34  27956912.54627      2597.46127        43.30027
E36  27767347.77928      1346.25228        49.30028
> 2025 11 28 22 46 17.4429919  0 24                      
G01  24102988.76228      1545.10028        49.60028
G02  24455475.74029      -678.20029        54.70029
G07  22444049.72226     -2113.19126        40.60026
G13  20836454.93627       626.15027        47.10027
G14  20342620.01128      -330.55028        47.80028
G15  22660757.99827      1548.30027        44.20027
G17  20921780.06727      1893.55027        46.70027
G19  22356520.81728      3194.10028        51.60028
G22  20696193.13827       133.15027        47.10027
G30  20767903.19427     -1125.35027        41.80027
R06  21378352.58825       524.30025        35.10025
R18  22375694.64326      4043.05026        35.50026
R16  20782788.18928      1447.35028        51.80028
R15  20457771.49428     -1157.90028        52.60028
R05  21552510.12228     -3704.60028        51.10028
R24  22882071.68528     -2184.35028        50.20028
R17  20982011.37026      1560.50026        40.80026
E07  23833921.73327      -197.68027        41.80027
E08  25194427.57527     -2639.53827        44.00027
E27  26012559.99327      1781.60227        46.60027
E29  26700046.15727      2283.63027        42.60027
E30  23560068.21828       -64.66728        48.90028
E34  27956419.38827      2581.39927        43.50027
E36  27767094.75428      1329.77528        49.20028
> 2025 11 28 22 46 18.4429919  0 24                      
G01  24102696.46428      1514.45028        49.80028
G02  24455611.54629      -709.70029        55.10029
G07  22444464.63427     -2145.40027        41.60027
G13  20836338.01727       595.15027        46.90027
G14  20342689.86328      -361.65028        48.00028
G15  22660464.20127      1516.45027        43.70027
G17  20921422.11527      1861.90027        46.40027
G19  22355913.13728      3162.90028        51.50028
G22  20696173.95127       101.70027        47.40027
G30  20768129.23727     -1156.75027        41.50027
R06  21378249.46026       491.60026        36.40026
R18  22374914.88326      4011.40026        35.80026
R16  20782513.57928      1415.75028        52.40028
R15  20457994.83928     -1190.30028        52.40028
R05  21553203.24228     -3737.30028        51.60028
R24  22882485.39928     -2216.45028        50.50028
R17  20981710.37827      1529.25027        42.30027
E07  23833963.70427      -228.36727        42.60027
E08  25194933.92427     -2670.22727        43.90027
E27  26012224.52627      1751.13627        46.30027
E29  26699614.45627      2253.03927        41.90027
E30  23560084.40728       -95.18428        49.10028
E34  27955931.62527      2550.96927        42.90027
E36  27766845.62728      1299.04328        49.80028
> 2025 11 28 22 46 19.4429919  0 24                      
G01  24102409.56328      1519.21728        49.60028
G02  24455744.95429      -704.54429        55.20029
G07  22444869.95426     -2140.36126        41.30026
G13  20836221.09827       600.20227        46.50027
G14  20342757.61628      -356.02528        48.10028
G15  22660175.20127      1521.61527        43.80027
G17  20921068.66027      1867.62827        46.40027
G19  22355311.45428      3168.25028        51.40028
G22  20696153.56527       107.60427        47.30027
G30  20768348.08627     -1150.35027        41.70027
R06  21378150.82826       498.33326        36.90026
R18  22374165.40225      4017.70025        34.30025
R16  20782252.76028      1421.82228        51.70028
R15  20458220.88228     -1184.07228        52.60028
R05  21553905.65628     -3731.48428        50.90028
R24  22882899.71228     -2211.61628        50.80028
R17  20981431.87126      1533.24926        41.20026
E07  23834006.27527      -221.84527        43.00027
E08  25195440.27427     -2663.48427        43.50027
E27  26011891.45627      1757.98227        46.40027
E29  26699187.55127      2259.69627        42.20027
E30  23560100.89628       -88.30328        49.10028
E34  27955446.26127      2557.96327        43.70027
E36  27766593.50128      1305.64128        49.50028
> 2025 11 28 22 46 20.4429919  0 24                      
G01  24102117.56528      1536.65028        49.50028
G02  24455877.16329      -686.75029        55.30029
G07  22445274.07426     -2122.45026        41.10026
G13  20836108.37627       617.05027        47.30027
G14  20342824.76928      -338.90028        48.50028
G15  22659875.10927      1538.60027        43.70027
G17  20920708.60927      1884.75027        46.10027
G19  22354706.47328      3186.15028        51.40028
G22  20696135.57728       125.20028        47.80028
G30  20768564.23627     -1132.85027        41.50027
R06  21378066.28726       515.15026        36.00026
R18  22373433.00925      4033.75025        34.70025
R16  20781985.04528      1439.90028        52.00028
R15  20458442.12928     -1166.20028        52.90028
R05  21554600.27528     -3713.90028        51.30028
R24  22883319.12228     -2193.50028        50.60028
R17  20981145.86927      1551.55027        41.80027
E07  23834045.24827      -205.66027        42.80027
E08  25195946.62327     -2646.99727        43.80027
E27  26011552.09127      1774.43627        46.50027
E29  26698755.85027      2276.08327        41.80027
E30  23560117.08428       -71.87128        49.00028
E34  27954956.10127      2574.62227        43.60027
E36  27766347.67128      1322.00128        49.30028
> 2025 11 28 22 46 21.4429919  0 24                      
G01  24101821.97028      1550.15428        49.40028
G02  24456008.77129      -673.90229        55.10029
G07  22445676.09626     -2109.17526        41.40026
G13  20835989.95827       630.07127        47.20027
G14  20342885.92728      -325.39628        48.50028
G15  22659584.61027      1552.06427        43.70027
G17  20920347.95827      1897.70527        45.80027
G19  22354098.79328      3199.47528        51.20028
G22  20696109.49628       138.21528        47.50028
G30  20768775.59026     -1121.08526        40.30026
R06  21377946.96926       528.25926        36.10026
R18  22372650.55025      4048.20025        33.70025
R16  20781711.93428      1453.14128        51.60028
R15  20458655.58128     -1152.79328        53.00028
R05  21555293.09528     -3700.61528        51.50028
R24  22883722.34328     -2180.71228        50.10028
R17  20980858.36827      1563.95527        42.80027
E07  23834084.52127      -192.65327        42.20027
E08  25196448.77527     -2633.87727        43.50027
E27  26011216.32427      1787.73827        47.00027
E29  26698321.45126      2289.26326        41.30026
E30  23560130.27528       -58.67128        49.30028
E34  27954466.24027      2588.03427        43.00027
E36  27766093.44728      1334.95628        49.60028
> 2025 11 28 22 46 22.4429919  0 24                      
G01  24101523.67628      1566.70528        49.80028
G02  24456133.48529      -657.53429        55.20029
G07  22446079.01726     -2092.23926        38.00026
G13  20835871.84028       646.73428        48.10028
G14  20342947.08528      -308.90128        48.00028
G15  22659291.11327      1568.51427        41.70027
G17  20919987.90827      1914.50127        46.50027
G19  22353486.61728      3216.40128        50.80028
G22  20696081.91528       154.67928        48.10028
G30  20768981.84726     -1104.68126        41.00026
R06  21377872.92126       544.73126        36.80026
R18  22371904.06725      4063.50025        32.30025
R16  20781436.12528      1470.56528        51.90028
R15  20458869.33328     -1135.98128        52.70028
R05  21555985.91528     -3683.52228        50.70028
R24  22884126.76328     -2164.04528        50.60028
R17  20980576.26326      1580.20626        41.40026
E07  23834120.79626      -175.16626        41.20026
E08  25196954.22627     -2618.33927        43.70027
E27  26010873.96127      1805.47927        47.40027
E29  26697887.05126      2304.74326        40.70026
E30  23560137.17028       -40.93028        48.50028
E34  27953970.38327      2605.98127        44.50027
E36  27765837.42528      1350.37028        48.80028
> 2025 11 28 22 46 23.4429919  0 24                      
G01  24101229.28028      1541.55028        49.40028
G02  24456261.49629      -683.35029        55.30029
G07  22446481.63826     -2119.30026        40.70026
G13  20835748.02627       621.65027        46.20027
G14  20343012.73928      -333.60028        48.40028
G15  22658986.52427      1541.50027        42.70027
G17  20919627.55727      1889.05027        45.60027
G19  22352876.83928      3191.05028        49.70028
G22  20696052.53528       129.45028        48.30028
G30  20769199.79626     -1130.10026        40.60026
R06  21377764.99526       518.40026        37.30026
R18  22371117.11226      4035.05026        36.60026
R16  20781159.11728      1445.05028        51.30028
R15  20459077.98928     -1161.15028        53.10028
R05  21556677.23728     -3709.45028        50.70028
R24  22884529.98428     -2190.85028        51.00028
R17  20980270.17527      1554.65027        44.70027
E07  23834157.67027      -201.70027        42.80027
E08  25197450.38227     -2642.39127        44.10027
E27  26010532.19728      1779.00028        47.80028
E29  26697445.75727      2280.62327        42.70027
E30  23560150.96128       -66.75028        48.70028
E34  27953478.72327      2579.80027        44.40027
E36  27765582.30128      1326.25128        49.20028
> 2025 11 28 22 46 24.4429919  0 24                      
G01  24100938.18228      1510.30028        50.00028
G02  24456399.10129      -714.45029        55.10029
G07  22446890.85527     -2149.10027        43.20027
G13  20835635.30427       589.65027        45.50027
G14  20343074.49728      -364.85028        47.50028
G15  22658699.32327      1511.75027        43.70027
G17  20919278.59927      1857.95027        43.30027
G19  22352268.86027      3160.95027        46.20027
G22  20696030.65028        99.05028        48.70028
G30  20769416.84627     -1161.15027        44.90027
R06  21377657.07026       488.15026        37.70026
R18  22370380.82226      4007.50026        39.00026
R16  20780894.70028      1413.80028        51.50028
R15  20459297.13728     -1191.85028        52.80028
R05  21557377.85228     -3740.85028        49.60028
R24  22884943.99728     -2222.30028        51.10028
R17  20979969.48328      1522.05028        49.10028
E07  23834199.04127      -232.30727        43.60027
E08  25197957.63126     -2669.45026        36.60026
E27  26010196.13028      1749.25028        48.00028
E29  26697015.25526      2250.40426        41.40026
E30  23560162.65328       -97.80028        48.30028
E34  27952991.86028      2549.50028        47.70028
E36  27765334.97328      1295.88828        50.40028
> 2025 11 28 22 46 25.4429919  0 24                      
G01  24100651.58028      1505.93228        50.80028
G02  24456530.41029      -718.63729        55.50029
G07  22447297.97326     -2152.41526        40.30026
G13  20835521.08327       585.31027        46.90027
G14  20343148.54528      -368.57328        47.50028
G15  22658406.42626      1506.93026        41.00026
G17  20918926.04325      1853.51525        33.40025
G19  22351676.47027      3156.35627        42.10027
G22  20696012.66328        94.91428        48.50028
G30  20769634.49526     -1164.77626        40.60026
R06  21377585.71926       481.99026        37.80026
R18  22369631.34026      4003.70926        41.30026
R16  20780632.98128      1409.76528        50.40028
R15  20459522.58128     -1196.24828        51.80028
R05  21558073.07127     -3745.01927        47.40027
R24  22885358.01028     -2226.87228        50.60028
R17  20979699.67027      1517.98327        47.30027
E07  23834244.01027      -235.45227        43.40027
E08  25198466.07926     -2675.80126        41.10026
E27  26009863.36028      1746.08928        48.70028
E29  26696589.84927      2247.27527        43.40027
E30  23560185.73728      -100.43328        48.70028
E34  27952503.79828      2546.94528        47.50028
E36  27765086.74428      1292.56528        51.50028
> 2025 11 28 22 46 26.4429919  0 24                      
G01  24100363.18028      1527.75028        51.30028
G02  24456665.31729      -696.70029        55.30029
G07  22447706.29026     -2129.55026        39.50026
G13  20835410.75927       607.10027        44.90027
G14  20343209.40327      -346.55027        46.50027
G15  22658121.02327      1529.50027        44.00027
G17  20918565.99226      1874.75026        39.10026
G19  22351069.99027      3177.90027        43.30027
G22  20695990.17828       117.00028        47.60028
G30  20769847.64827     -1143.15027        44.50027
R06  21377473.89726       503.90026        37.00026
R18  22368887.85526      4026.85026        39.80026
R16  20780368.26428      1432.10028        52.20028
R15  20459751.92228     -1173.65028        53.10028
R05  21558775.18528     -3722.65028        48.60028
R24  22885774.42228     -2204.25028        51.80028
R17  20979404.97427      1540.30027        46.90027
E07  23834283.28327      -214.83227        43.60027
E08  25198966.13325     -2653.00025        35.40025
E27  26009530.59127      1767.09927        47.20027
E29  26696158.14826      2268.25226        40.10026
E30  23560199.82728       -79.45028        48.20028
E34  27952019.33428      2568.10828        47.50028
E36  27764837.01728      1313.40828        51.50028
> 2025 11 28 22 46 27.4429919  0 24                      
G01  24100074.18028      1546.93328        50.00028
G02  24456795.42729      -677.99129        55.10029
G07  22448106.51327     -2111.91427        44.20027
G13  20835293.24127       625.21427        47.10027
G14  20343271.46027      -327.86927        46.80027
G15  22657821.23126      1547.39326        41.10026
G17  20918178.36025      1893.50025        34.00025
G19  22350463.51027      3196.98227        42.40027
G22  20695965.29528       135.53428        48.10028
G30  20770065.29726     -1124.44826        40.70026
R06  21377410.04126       522.13626        36.70026
R18  22368106.89626      4045.84226        40.10026
R16  20780097.85228      1451.32528        51.20028
R15  20459964.47529     -1154.72429        53.50029
R05  21559470.70327     -3703.92027        46.20027
R24  22886185.73728     -2185.82628        52.00028
R17  20979114.77528      1558.52428        47.80028
E07  23834326.15327      -196.28627        43.30027
E08  25199473.08226     -2635.99226        40.50026
E27  26009190.62628      1785.94628        48.30028
E29  26695725.54827      2286.83327        42.40027
E30  23560211.81928       -60.70828        48.30028
E34  27951526.77527      2587.02927        46.50027
E36  27764586.39128      1331.99728        50.30028
> 2025 11 28 22 46 28.4429919  0 24                      
G01  24099776.78628      1565.51028        50.80028
G02  24456923.13829      -659.58729        55.20029
G07  22448504.93726     -2093.07226        41.30026
