     4.01           OBSERVATION DATA    M                   RINEX VERSION / TYPE
GnssLogger          samsung 12          20251128 231732 UTC PGM / RUN BY / DATE
Google GnssLogger                                           MARKER NAME
Unknown                                                     MARKER NUMBER
Unknown             Unknown                                 OBSERVER / AGENCY
Unknown             GnssLogger          v3.1.1.1            REC # / TYPE / VERS
Unknown             Unknown                                 ANT # / TYPE
        0.0000        0.0000        0.0000                  ANTENNA: DELTA H/E/N
G    3 C1C D1C S1C                                          SYS / # / OBS TYPES
R    3 C1C D1C S1C                                          SYS / # / OBS TYPES
E    3 C1C D1C S1C                                          SYS / # / OBS TYPES
  2025    11    28    23    17   32.0000000     GPS         TIME OF FIRST OBS
 7 R05  1 R06 -4 R07  5 R15  0 R16 -1 R17  4 R18 -3         GLONASS SLOT / FRQ #
samsung SM-G781U1 (Android 12) HW Year: 2019 HW Model:      COMMENT
qcom,SM8250,                                                COMMENT
                                                            END OF HEADER
> 2025 11 28 23 17 32.4429877  0 23                      
G01  23714249.22228       589.35028        52.40028
G02  24886986.95229     -1722.20029        54.40029
G07  23314249.93627     -2751.95027        45.60027
G13  20850454.48627      -704.20027        42.60027
G14  20557623.20925      -860.20025        34.70025
G15  22339645.34027       237.15027        44.60027
G17  20447764.86226       746.60026        41.30026
G19  21334025.71626      2492.50026        40.40026
G30  21318352.26726     -1958.95026        39.70026
R06  21492957.69025     -1156.85025        32.10025
R18  21073068.67326      3274.15026        38.50026
R16  20341033.95027      1066.45027        46.90027
R15  20933640.89727     -1555.45027        46.90027
R05  22961194.25128     -4226.15028        50.30028
R17  20723034.59729      -115.70029        55.10029
R07  22906334.33028      2081.40028        51.40028
E07  24067772.28326     -1106.45926        38.90026
E08  26213314.35526     -3034.60026        39.10026
E27  25438400.61727      1442.09927        44.60027
E29  25995482.75727      1631.77127        42.70027
E30  23652752.19526      -437.90026        36.90026
E34  27067027.34227      2356.00327        44.30027
E36  27433909.15528       511.30528        51.10028
> 2025 11 28 23 17 33.4429877  0 24                      
G01  23714137.10028       603.90028        52.10028
G02  24887314.02628     -1708.25028        53.40028
G07  23314775.77226     -2737.15026        39.60026
G13  20850587.89327      -691.20027        44.60027
G14  20557757.81526      -845.65026        37.60026
G15  22339601.27127       251.35027        45.00027
G17  20447622.16127       759.70027        44.70027
G19  21333554.74227      2506.10027        47.10027
G22  20752863.64627      -399.60027        44.00027
G30  21318722.51127     -1945.90027        42.30027
R06  21493162.14826     -1139.55026        37.80026
R18  21072428.01727      3287.00027        42.60027
R16  20340830.69128      1080.10028        50.20028
R15  20933935.29328     -1539.90028        49.40028
R05  22961988.10128     -4211.60028        51.30028
R17  20723055.28229      -101.20029        54.10029
R07  22905947.59728      2095.20028        48.90028
E07  24067983.33726     -1092.22926        38.90026
E08  26213890.25626     -3020.70026        37.50026
E27  25438121.81028      1456.56228        49.20028
E29  25995171.87227      1645.96927        42.00027
E30  23652838.53627      -423.84127        42.50027
E34  27066579.15227      2370.36327        45.80027
E36  27433808.42528       525.39328        50.20028
> 2025 11 28 23 17 34.4429877  0 24                      
G01  23714018.98128       629.19028        52.40028
G02  24887636.90229     -1682.62629        53.70029
G07  23315291.11526     -2711.72426        39.00026
G13  20850719.50227      -665.29927        41.80027
G14  20557917.00527      -819.40027        42.10027
G15  22339546.40927       276.50727        46.00027
G17  20447479.46027       784.98727        44.20027
G19  21333069.67827      2531.81727        44.80027
G22  20752921.80627      -388.93827        44.90027
G30  21319088.25727     -1919.50027        42.60027
R06  21493393.58826     -1116.22226        39.20026
R18  21071816.14026      3313.60426        40.60026
R16  20340625.33328      1107.05028        49.30028
R15  20934219.49628     -1514.99228        51.80028
R05  22962775.65628     -4185.11528        51.70028
R17  20723071.17129       -76.55029        54.80029
R07  22905550.67227      2121.50727        46.80027
E07  24068188.99427     -1067.12727        41.60027
E08  26214459.56226     -2995.22526        39.10026
E27  25437841.20428      1481.99728        49.90028
E29  25994855.29127      1671.14527        45.50027
E30  23652915.28227      -399.46327        45.20027
E34  27066124.06727      2396.18727        46.60027
E36  27433705.89628       550.64928        51.20028
> 2025 11 28 23 17 35.4429877  0 24                      
G01  23713898.76428       631.01228        51.60028
G02  24887957.38128     -1680.96828        53.20028
G07  23315813.05426     -2709.64926        40.10026
G13  20850844.51627      -663.76327        43.20027
G14  20558075.29627      -817.93127        43.00027
G15  22339497.24327       278.45027        46.90027
G17  20447327.76527       786.73327        43.70027
G19  21332590.91027      2534.18927        44.60027
G22  20752988.36027      -386.87227        44.80027
G30  21319447.70826     -1917.01026        40.40026
R06  21493602.54426     -1114.24826        38.30026
R18  21071183.27826      3315.48226        40.80026
R16  20340411.28128      1108.90628        50.10028
R15  20934503.40028     -1512.89028        51.80028
R05  22963556.91528     -4182.66828        50.90028
R17  20723087.96029       -74.82529        53.90029
R07  22905151.34927      2123.14727        45.30027
E07  24068388.95627     -1066.14527        42.50027
E08  26215029.16826     -2991.82926        36.10026
E27  25437563.89628      1485.54728        49.30028
E29  25994536.61227      1674.34427        44.40027
E30  23652992.02927      -396.11927        45.10027
E34  27065670.48127      2398.49727        46.70027
E36  27433602.76728       553.93628        51.60028
> 2025 11 28 23 17 36.4429877  0 24                      
G01  23713786.34228       585.70028        52.20028
G02  24888281.15629     -1725.75029        53.70029
G07  23316329.29626     -2750.85026        37.60026
G13  20850981.52126      -708.65026        40.30026
G14  20558240.18127      -861.70027        42.90027
G15  22339444.18027       233.90027        45.30027
G17  20447186.56227       741.70027        43.70027
G19  21332113.04027      2489.60027        44.20027
G22  20753071.10327      -430.40027        44.80027
G30  21319816.45327     -1962.05027        42.20027
R06  21493807.60226     -1159.05026        39.10026
R18  21070567.50526      3269.90026        41.40026
R16  20340208.62228      1064.95028        47.70028
R15  20934790.00128     -1557.60028        52.30028
R05  22964348.96728     -4228.20028        50.40028
R17  20723101.15129      -120.25029        54.70029
R07  22904760.71927      2076.75027        45.50027
E07  24068596.11326     -1109.25926        40.30026
E08  26215608.36726     -3037.10026        37.20026
E27  25437283.29028      1440.50028        49.60028
E29  25994224.52827      1628.95027        46.30027
E30  23653073.57327      -441.15027        45.00027
E34  27065218.69427      2354.50027        47.30027
E36  27433502.93628       508.35028        51.20028
> 2025 11 28 23 17 37.4429877  0 24                      
G01  23713673.02128       571.14428        52.90028
G02  24888608.53029     -1740.48429        54.10029
G07  23316850.03626     -2769.01226        37.30026
G13  20851109.83227      -722.83727        43.00027
G14  20558398.77227      -876.31727        42.20027
G15  22339399.51127       218.01527        44.90027
G17  20447044.76027       727.64927        43.90027
G19  21331644.46527      2474.86327        43.80027
G22  20753154.74527      -445.17127        44.90027
G30  21320191.19427     -1976.36227        42.60027
R06  21494018.95526     -1175.56926        39.20026
R18  21069964.32226      3255.60826        40.30026
R16  20340019.45328      1049.82728        48.10028
R15  20935086.49628     -1572.01128        52.20028
R05  22965138.02128     -4242.79328        52.10028
R17  20723127.83229      -135.48129        55.30029
R07  22904365.29327      2061.74127        46.10027
E07  24068811.96326     -1125.25226        39.20026
E08  26216186.36726     -3050.14026        38.70026
E27  25437011.67828      1424.83028        48.70028
E29  25993915.14227      1613.30927        46.20027
E30  23653157.51527      -456.67927        44.80027
E34  27064771.10427      2338.78027        46.20027
E36  27433407.60228       492.52228        50.90028
> 2025 11 28 23 17 38.4429877  0 24                      
G01  23713563.29728       592.70028        52.40028
G02  24888939.20129     -1719.00029        54.00029
G07  23317378.27026     -2746.60026        38.80026
G13  20851251.33427      -702.50027        44.10027
G14  20558567.25527      -854.80027        43.30027
G15  22339362.63627       239.70027        45.70027
G17  20446899.36127       748.65027        42.60027
G19  21331168.09527      2496.00027        43.80027
G22  20753227.89427      -423.65027        44.10027
G30  21320565.33526     -1955.55026        40.50026
R06  21494234.80626     -1154.05026        39.70026
R18  21069349.14826      3276.45026        40.50026
R16  20339819.49128      1071.80028        50.20028
R15  20935373.69728     -1549.75028        51.00028
R05  22965931.27228     -4220.15028        51.70028
R17  20723147.91829      -114.45029        54.40029
R07  22903983.65728      2083.10028        49.00028
E07  24069022.41826     -1102.40026        39.80026
E08  26216764.66626     -3029.39026        36.10026
E27  25436734.37028      1447.50028        50.10028
E29  25993605.15727      1636.15027        45.30027
E30  23653242.95627      -433.35027        44.70027
E34  27064324.11327      2361.35027        46.70027
E36  27433309.57028       515.20028        51.10028
> 2025 11 28 23 17 39.4429877  0 23                      
G01  23713449.37628       604.60028        52.20028
G02  24889266.57429     -1707.20029        54.00029
G13  20851373.05027      -690.65027        44.70027
G14  20558723.14727      -842.90027        42.60027
G15  22339318.26727       251.40027        44.60027
G17  20446758.15927       760.25027        43.10027
G19  21330693.22327      2507.75027        45.00027
G22  20753316.93327      -411.65027        44.00027
G30  21320938.57627     -1943.00027        43.30027
R06  21494454.85426     -1143.00026        38.90026
R18  21068747.76427      3288.85027        42.20027
R16  20339621.32828      1084.10028        47.60028
R15  20935664.79628     -1538.10028        52.30028
R05  22966720.92528     -4208.20028        52.20028
R17  20723168.30429      -102.95029        56.00029
R07  22903603.52028      2095.25028        51.60028
E07  24069231.37326     -1090.82826        37.70026
E08  26217339.66826     -3017.41426        38.10026
E27  25436457.66228      1459.68328        49.10028
E29  25993291.57427      1647.72427        44.00027
E30  23653323.90027      -421.83127        44.50027
E34  27063873.52527      2373.36027        47.30027
E36  27433210.63828       526.80828        52.50028
> 2025 11 28 23 17 40.4429877  0 23                      
G01  23713327.66028       623.82028        51.60028
G02  24889586.15329     -1687.65829        54.10029
G13  20851499.56226      -671.30226        40.90026
G14  20558881.73727      -823.45627        43.60027
G15  22339264.90427       270.27527        47.20027
G17  20446608.56227       779.35327        43.10027
G19  21330215.05427      2527.26427        45.20027
G22  20753395.17827      -392.38127        44.90027
G30  21321301.32526     -1923.73226        41.00026
R06  21494664.10926     -1123.11126        38.30026
R18  21068114.60327      3308.35027        43.60027
R16  20339404.27828      1103.63628        49.80028
R15  20935950.49828     -1518.16428        52.00028
R05  22967507.88028     -4187.73228        51.30028
R17  20723182.09529       -83.73629        54.40029
R07  22903208.99328      2114.85628        49.10028
E07  24069437.63027     -1071.79027        42.80027
E08  26217909.57426     -2997.90626        38.80026
E27  25436180.95328      1479.13928        50.00028
E29  25992977.09127      1666.99227        46.30027
E30  23653400.64627      -402.40127        45.60027
E34  27063417.24127      2393.13527        46.70027
E36  27433109.00928       545.92828        52.20028
> 2025 11 28 23 17 41.4429877  0 23                      
G01  23713213.43928       629.62128        51.70028
G02  24889905.43229     -1681.98129        53.70029
G13  20851633.86927      -665.78627        42.60027
G14  20559038.82927      -817.34227        43.60027
G15  22339216.03827       276.24827        45.20027
G17  20446457.76727       785.11127        42.40027
G19  21329733.88727      2533.08227        45.50027
G22  20753466.52927      -386.24727        44.50027
G30  21321666.77227     -1917.98227        42.10027
R06  21494878.16026     -1116.91626        38.40026
R18  21067497.03027      3314.18027        42.60027
R16  20339192.92527      1109.95727        46.50027
R15  20936235.90028     -1511.88128        52.40028
R05  22968285.84228     -4181.19028        51.20028
R17  20723198.58329       -78.17329        55.40029
R07  22902811.76828      2120.81028        51.50028
E07  24069642.98826     -1066.82826        38.90026
E08  26218486.67426     -2991.59026        38.50026
E27  25435895.55128      1484.47828        49.80028
E29  25992658.41227      1674.19027        45.20027
E30  23653475.59527      -397.21327        44.50027
E34  27062964.55427      2398.42527        47.00027
E36  27433004.98128       550.99528        52.20028
> 2025 11 28 23 17 42.4429877  0 24                      
G01  23713096.22028       588.70028        52.00028
G02  24890233.10529     -1722.95029        53.70029
G07  23319450.43526     -2750.95026        37.00026
G13  20851765.17827      -704.15027        43.60027
G14  20559202.21527      -858.00027        43.00027
G15  22339170.46927       234.40027        45.60027
G17  20446320.16227       744.55027        42.90027
G19  21329259.91627      2493.15027        45.80027
G22  20753547.77327      -426.85027        44.10027
G30  21322038.21527     -1957.25027        42.30027
R06  21495091.31326     -1159.20026        38.20026
R18  21066878.25927      3272.85027        42.20027
R16  20338988.46627      1068.85027        46.10027
R15  20936518.60528     -1552.50028        52.70028
R05  22969072.19728     -4222.50028        52.70028
R17  20723217.17029      -119.70029        55.90029
R07  22902420.23928      2078.80028        51.30028
E07  24069846.84726     -1105.90326        38.50026
E08  26219056.88026     -3030.00026        38.10026
E27  25435618.84228      1445.57228        49.00028
E29  25992345.72827      1630.70027        44.50027
E30  23653556.83827      -436.01627        43.80027
E34  27062513.66727      2359.35627        46.80027
E36  27432902.75228       511.79228        52.40028
> 2025 11 28 23 17 43.4429877  0 24                      
G01  23712983.49828       571.09328        51.80028
G02  24890560.47929     -1740.21029        53.80029
G07  23319969.07626     -2767.00026        40.60026
G13  20851900.38526      -723.66026        39.90026
G14  20559370.09927      -874.42527        43.10027
G15  22339128.79827       217.84327        46.00027
G17  20446174.16327       727.24027        42.00027
G19  21328788.04227      2475.78927        44.70027
G22  20753629.01727      -443.33427        44.40027
G30  21322408.15926     -1975.43326        39.40026
R06  21495317.65626     -1176.64426        38.70026
R18  21066267.88127      3255.73727        43.20027
R16  20338790.30327      1051.96827        47.30027
R15  20936809.70328     -1569.78828        51.40028
R05  22969867.24728     -4239.91328        50.90028
R17  20723249.24829      -137.61929        54.40029
R07  22902037.10528      2060.64428        49.60028
E07  24070056.40226     -1122.25526        40.30026
E08  26219639.37626     -3047.64926        36.20026
E27  25435345.13228      1429.63028        49.60028
E29  25992035.14327      1616.73027        46.50027
E30  23653640.18127      -451.92427        44.40027
E34  27062062.47927      2343.20027        46.70027
E36  27432808.91728       495.49428        51.70028
> 2025 11 28 23 17 44.4429877  0 24                      
G01  23712875.57328       586.35028        51.40028
G02  24890889.95029     -1725.05029        54.00029
G07  23320492.81426     -2753.00026        37.90026
G13  20852039.48827      -709.70027        44.80027
G14  20559526.29127      -859.55027        42.40027
G15  22339081.43127       231.95027        45.40027
G17  20446037.45827       742.70027        42.50027
G19  21328313.77127      2490.00027        45.60027
G22  20753711.16027      -428.00027        44.60027
G30  21322779.60227     -1960.55027        41.80027
R06  21495515.21926     -1162.55026        38.70026
R18  21065666.19827      3269.85027        41.50027
R16  20338593.04027      1066.80027        46.00027
R15  20937101.40128     -1554.55028        52.50028
R05  22970655.70128     -4224.20028        51.90028
R17  20723272.03229      -123.30029        56.10029
R07  22901644.97628      2075.80028        51.80028
E07  24070267.15626     -1108.60126        37.50026
E08  26220214.67826     -3033.44226        38.90026
E27  25435071.12228      1443.50328        49.00028
E29  25991728.75627      1630.36627        42.00027
E30  23653728.02027      -438.01827        44.70027
E34  27061617.88727      2357.15227        46.80027
E36  27432709.98528       509.07728        52.90028
> 2025 11 28 23 17 45.4429877  0 24                      
G01  23712761.95128       596.27828        52.20028
G02  24891217.62429     -1714.93429        54.20029
G07  23321021.04827     -2741.77827        41.70027
G13  20852178.29227      -699.06927        42.10027
G14  20559691.17727      -849.01227        43.20027
G15  22339038.56027       242.08627        46.60027
G17  20445889.66027       751.90027        42.80027
G19  21327839.49927      2501.20027        44.60027
G22  20753790.90527      -417.97727        45.40027
G30  21323157.04126     -1950.10026        41.40026
R06  21495755.35326     -1152.04126        39.00026
R18  21065046.82727      3281.15027        43.10027
R16  20338391.28028      1077.86828        48.80028
R15  20937397.29628     -1544.20028        51.70028
R05  22971443.85528     -4213.50028        51.50028
R17  20723290.02029      -113.05029        54.40029
R07  22901259.74328      2086.35028        50.00028
E07  24070479.10927     -1098.49827        42.00027
E08  26220793.57726     -3022.82126        36.30026
E27  25434797.11128      1454.04028        50.00028
E29  25991415.77227      1640.65727        45.50027
E30  23653808.96427      -427.51727        45.60027
E34  27061165.20027      2367.68027        46.20027
E36  27432614.05128       519.28928        51.70028
> 2025 11 28 23 17 46.4429877  0 24                      
G01  23712646.83128       617.75428        51.80028
G02  24891543.79829     -1693.37729        54.00029
G07  23321532.79426     -2720.16026        39.10026
G13  20852307.20327      -678.42827        41.80027
G14  20559850.66727      -827.76027        43.20027
G15  22338989.09527       263.45427        46.70027
G17  20445747.85827       772.83027        43.00027
G19  21327363.12927      2521.83627        45.20027
G22  20753867.35227      -396.68627        44.80027
G30  21323524.88627     -1928.87227        42.00027
R06  21495963.40926     -1131.02026        37.90026
R18  21064427.45527      3302.14727        43.60027
R16  20338185.62228      1099.48328        47.90028
R15  20937682.39928     -1522.26728        51.80028
R05  22972222.41628     -4191.14728        50.90028
R17  20723308.90729       -92.12029        54.60029
R07  22900868.81328      2107.63828        50.30028
E07  24070686.86527     -1077.24727        42.30027
E08  26221361.08426     -3001.65226        39.50026
E27  25434514.70728      1475.42428        50.10028
E29  25991101.29027      1661.87227        46.10027
E30  23653886.01027      -406.15927        45.00027
E34  27060714.31227      2389.23027        47.10027
E36  27432512.12228       540.40028        52.00028
> 2025 11 28 23 17 47.4429877  0 23                      
G01  23712523.31728       623.51428        51.60028
G02  24891864.87629     -1687.81329        53.50029
G13  20852435.51427      -672.92927        44.70027
G14  20559998.46426      -821.82926        40.90026
G15  22338943.82627       269.39127        46.30027
G17  20445598.86127       779.49627        42.70027
G19  21326881.96227      2528.70227        46.20027
G22  20753941.10127      -390.78227        43.90027
G30  21323897.82827     -1922.27927        43.50027
R06  21496179.26026     -1124.99826        37.90026
R18  21063815.87927      3308.76327        41.80027
R16  20337977.26627      1105.62027        45.10027
R15  20937965.70328     -1515.22128        52.30028
R05  22973016.26728     -4184.73028        51.20028
R17  20723324.19629       -86.75929        55.50029
R07  22900470.38928      2113.34128        50.90028
E07  24070890.12526     -1070.28426        39.50026
E08  26221925.59426     -2995.62026        36.90026
E27  25434237.09928      1482.65128        49.00028
E29  25990785.30927      1668.73927        45.10027
E30  23653965.15627      -398.97127        43.70027
E34  27060258.62827      2396.64827        47.00027
E36  27432408.69428       547.38328        52.30028
> 2025 11 28 23 17 48.4429877  0 23                      
G01  23712417.79028       578.20028        52.20028
G02  24892190.15029     -1733.10029        53.80029
G13  20852573.41927      -717.85027        41.80027
G14  20560168.14727      -865.90027        42.00027
G15  22338894.96027       224.90027        47.30027
G17  20445457.65927       734.00027        43.60027
G19  21326406.19127      2484.05027        45.50027
G22  20754018.14727      -435.00027        43.50027
G30  21324271.06926     -1967.60026        40.70026
R06  21496375.32426     -1170.75026        38.80026
R18  21063198.60627      3263.00027        44.20027
R16  20337780.60227      1061.10027        46.30027
R15  20938246.60828     -1560.25028        51.90028
R05  22973801.12328     -4230.65028        52.20028
R17  20723344.58229      -132.20029        54.70029
R07  22900087.55428      2066.40028        49.20028
E07  24071095.48226     -1114.60026        40.00026
E08  26222508.39026     -3040.80026        36.70026
E27  25433960.39128      1437.35028        49.50028
E29  25990473.82428      1624.10028        47.80028
E30  23654044.30127      -444.55027        43.80027
E34  27059809.53927      2351.00027        47.30027
E36  27432310.66228       502.45028        51.90028
> 2025 11 28 23 17 49.4429877  0 23                      
G01  23712308.06628       555.97728        52.20028
G02  24892523.81929     -1754.96229        53.90029
G13  20852705.32727      -739.49127        44.00027
G14  20560330.03527      -887.50027        41.70027
G15  22338858.98527       203.35027        46.10027
G17  20445320.05427       713.00027        43.70027
G19  21325937.01627      2462.65027        45.40027
G22  20754110.78327      -455.65027        44.40027
G30  21324646.11027     -1989.25027        42.90027
R06  21496608.86226     -1194.09826        39.00026
R18  21062596.92327      3240.50027        42.60027
R16  20337583.33927      1038.84727        44.50027
R15  20938539.50628     -1581.90028        52.20028
R05  22974597.97228     -4252.52328        51.90028
R17  20723379.95829      -155.04629        56.10029
R07  22899700.22228      2044.07928        51.00028
E07  24071310.73326     -1137.85626        38.80026
E08  26223089.68826     -3062.36726        38.80026
E27  25433689.37828      1416.84828        49.40028
E29  25990166.83727      1602.61827        46.40027
E30  23654132.44027      -464.68527        44.10027
E34  27059362.54827      2330.39527        47.40027
E36  27432217.12628       480.88528        52.30028
> 2025 11 28 23 17 50.4429877  0 23                      
G01  23712200.74028       573.35028        52.00028
G02  24892855.69029     -1737.60029        54.00029
G13  20852844.13127      -722.90027        44.20027
G14  20560491.92327      -870.95027        41.60027
G15  22338818.21327       218.75027        46.80027
G17  20445184.84827       728.65027        43.60027
G19  21325466.64227      2477.85027        46.10027
G22  20754193.22627      -440.15027        44.30027
G30  21325018.15227     -1973.35027        42.90027
R06  21496837.30426     -1177.00026        38.50026
R18  21061994.64027      3257.15027        42.80027
R16  20337385.47627      1056.25027        44.40027
R15  20938833.30228     -1565.70028        52.50028
R05  22975390.62328     -4234.90028        51.10028
R17  20723401.84229      -138.25029        56.20029
R07  22899314.98928      2061.40028        51.00028
E07  24071528.68226     -1121.85026        39.90026
E08  26223668.58726     -3044.40026        38.40026
E27  25433415.36828      1433.05128        49.40028
E29  25989859.55027      1618.62927        45.90027
E30  23654216.08227      -448.50627        43.60027
E34  27058916.75727      2346.45827        47.10027
E36  27432123.89128       496.82128        52.30028
> 2025 11 28 23 17 51.4429877  0 23                      
G01  23712090.41628       605.60028        52.00028
G02  24893182.46329     -1706.25029        53.60029
G13  20852975.14127      -692.35027        46.20027
G14  20560658.60726      -839.15026        40.70026
G15  22338777.74127       249.30027        46.60027
G17  20445036.15127       759.25027        44.20027
G19  21324995.06827      2509.45027        44.70027
G22  20754276.86827      -408.25027        43.90027
G30  21325388.39627     -1942.90027        42.60027
R06  21497057.95126     -1144.50026        38.40026
R18  21061379.46527      3290.40027        42.60027
R16  20337181.91727      1087.30027        43.50027
R15  20939122.90228     -1534.25028        52.30028
R05  22976181.47628     -4201.55028        53.10028
R17  20723422.82829      -107.20029        55.70029
R07  22898923.46028      2092.50028        50.80028
E07  24071741.83526     -1089.82626        38.70026
E08  26224246.28726     -3013.00026        36.50026
E27  25433140.45828      1464.26528        49.10028
E29  25989548.96527      1649.58427        44.30027
E30  23654300.02427      -417.29827        43.30027
E34  27058466.16927      2377.89827        47.00027
E36  27432026.75828       527.69628        52.30028
> 2025 11 28 23 17 52.4429877  0 24                      
G01  23711971.69928       633.97428        50.60028
G02  24893502.04228     -1676.94328        52.70028
G07  23324651.23527     -2725.40027        43.70027
G13  20853112.74527      -662.98127        44.10027
G14  20560817.79726      -810.60026        41.40026
G15  22338725.87727       279.03627        46.80027
G17  20444893.15027       787.45027        42.70027
G19  21324506.10727      2538.66927        45.10027
G22  20754351.81627      -378.90027        45.50027
G30  21325758.93927     -1912.42427        41.50027
R06  21497269.00526     -1116.45026        39.20026
R18  21060744.50527      3318.43527        42.20027
R16  20336980.75628      1118.05128        48.20028
R15  20939414.90028     -1505.55028        49.20028
R05  22976954.94028     -4171.74228        51.40028
R17  20723441.11528       -78.00628        53.20028
R07  22898528.63328      2123.19028        50.30028
E07  24071943.59526     -1061.59626        39.00026
E08  26224814.09426     -2981.86826        37.50026
E27  25432857.45428      1495.15828        50.10028
E29  25989232.68427      1680.15427        46.30027
E30  23654377.67027      -386.40427        44.40027
E34  27058010.18428      2407.79328        47.50028
E36  27431922.43028       556.05228        51.10028
> 2025 11 28 23 17 53.4429877  0 24                      
G01  23711848.48428       597.25028        50.60028
G02  24893822.22029     -1713.50029        54.20029
G07  23325194.15926     -2735.65226        38.30026
G13  20853241.35627      -697.70027        44.50027
G14  20560968.89227      -845.00027        43.80027
G15  22338676.71127       243.50027        47.20027
G17  20444742.35427       754.25027        43.80027
G19  21324027.03827      2503.60027        47.40027
G22  20754426.46527      -413.60027        46.90027
G30  21326127.98426     -1943.40026        38.70026
R06  21497487.55426     -1151.85026        39.00026
R18  21060140.72326      3284.45026        40.80026
R16  20336774.19927      1083.00027        47.40027
R15  20939697.60428     -1540.15028        52.40028
R05  22977746.39228     -4207.25028        50.60028
R17  20723461.80128      -116.00028        52.30028
R07  22898131.10928      2086.65028        50.70028
E07  24072150.75226     -1095.72426        39.10026
E08  26225387.89726     -3017.15026        38.40026
E27  25432577.14828      1459.60028        49.40028
E29  25988918.20127      1645.40027        44.30027
E30  23654455.01727      -421.95027        47.20027
E34  27057555.69927      2372.90027        45.20027
E36  27431821.40028       521.97228        51.90028
> 2025 11 28 23 17 54.4429877  0 24                      
G01  23711740.55928       562.50028        51.10028
G02  24894150.79329     -1748.20029        54.20029
G07  23325722.99326     -2772.45026        40.90026
G13  20853375.66327      -734.70027        45.90027
G14  20561133.77827      -879.90027        44.60027
G15  22338632.94127       208.15027        47.20027
G17  20444609.84627       717.45027        43.10027
G19  21323553.06627      2468.60027        45.10027
G22  20754507.40927      -448.95027        47.00027
G30  21326498.22726     -1981.65026        38.80026
R06  21497704.90426     -1189.60026        39.20026
R18  21059519.55326      3244.55026        36.80026
R16  20336572.73928      1047.20028        47.80028
R15  20939991.10128     -1574.85028        52.60028
R05  22978532.14828     -4243.95028        50.10028
R17  20723485.48529      -150.60029        54.70029
R07  22897746.17528      2050.40028        50.00028
E07  24072361.50627     -1131.04827        41.70027
E08  26225963.49826     -3053.02326        37.50026
E27  25432302.53828      1424.25028        49.20028
E29  25988609.11527      1608.80027        44.80027
E30  23654538.05927      -457.90027        46.90027
E34  27057109.30827      2336.70027        46.20027
E36  27431723.96828       486.62428        52.40028
> 2025 11 28 23 17 55.4429877  0 24                      
G01  23711633.23328       572.70028        50.80028
G02  24894484.76229     -1737.70029        54.20029
G07  23326244.33227     -2763.45027        42.10027
G13  20853510.57027      -723.90027        44.30027
G14  20561302.86127      -869.60027        44.40027
G15  22338591.57027       216.85027        46.40027
G17  20444470.74227       728.55027        42.30027
G19  21323081.49327      2478.70027        47.30027
G22  20754593.14927      -438.50027        46.80027
G30  21326877.76526     -1972.60026        37.10026
R06  21497927.35026     -1177.95026        38.90026
R18  21058907.97625      3258.05025        33.60025
R16  20336379.37328      1057.40028        47.70028
R15  20940282.79929     -1563.40029        53.60029
R05  22979326.59828     -4232.55028        49.60028
R17  20723511.26729      -140.20029        54.20029
R07  22897367.83728      2061.75028        49.10028
E07  24072576.15726     -1121.65626        39.50026
E08  26226539.10026     -3042.81426        37.40026
E27  25432029.42728      1432.78028        50.40028
E29  25988299.13027      1617.13327        44.50027
E30  23654624.09927      -448.86927        47.10027
E34  27056658.72027      2348.38527        45.50027
E36  27431631.03228       497.17828        52.50028
> 2025 11 28 23 17 56.4429877  0 24                      
G01  23711520.81128       591.95028        51.60028
G02  24894814.23429     -1718.30029        54.10029
G07  23326766.57127     -2742.20027        43.20027
G13  20853646.37627      -704.95027        47.10027
G14  20561468.04727      -849.20027        45.60027
G15  22338547.50027       236.40027        46.10027
G17  20444329.24027       747.00027        43.20027
G19  21322609.02027      2498.35027        44.30027
G22  20754671.69527      -418.95027        47.10027
G30  21327245.31026     -1953.75026        37.00026
R06  21498135.70526     -1158.90026        38.40026
R18  21058292.20325      3276.95025        34.70025
R16  20336186.00628      1078.00028        47.90028
R15  20940579.89328     -1544.05028        53.10028
R05  22980111.75528     -4212.75028        50.00028
R17  20723533.45129      -121.30029        54.20029
R07  22896976.00828      2080.00028        49.60028
E07  24072787.81126     -1102.05026        37.50026
E08  26227116.80026     -3022.28026        36.80026
E27  25431755.11728      1454.10028        49.00028
E29  25987990.94327      1638.10027        44.40027
E30  23654704.44427      -427.20027        47.00027
E34  27056212.62927      2367.52927        46.10027
E36  27431533.30028       516.20828        52.30028
> 2025 11 28 23 17 57.4429877  0 24                      
G01  23711404.49128       611.33028        50.80028
G02  24895138.90929     -1699.15529        53.80029
G07  23327296.30427     -2723.70727        41.70027
G13  20853780.98327      -686.01627        47.20027
G14  20561628.73627      -830.65727        45.10027
G15  22338501.33227       255.50327        45.70027
G17  20444187.13927       765.86527        42.60027
G19  21322134.44828      2517.07828        47.70028
G22  20754751.14027      -399.63427        46.90027
G30  21327612.85626     -1933.89326        40.20026
R06  21498358.15126     -1140.50026        37.80026
R18  21057693.51726      3293.40026        36.70026
R16  20335982.74727      1097.19227        47.30027
R15  20940861.69828     -1524.68828        53.10028
R05  22980901.10828     -4192.49628        50.30028
R17  20723554.43729      -102.30829        54.40029
R07  22896581.18228      2099.08328        48.70028
E07  24072999.76426     -1082.44326        36.90026
E08  26227689.10425     -3003.09825        34.90025
E27  25431476.01128      1473.55628        47.50028
E29  25987678.26027      1657.52827        43.70027
E30  23654784.48827      -408.01827        47.00027
E34  27055759.64227      2386.96127        45.40027
E36  27431434.36828       535.10628        52.10028
> 2025 11 28 23 17 58.4429877  0 24                      
G01  23711284.57428       632.36128        50.80028
G02  24895458.18829     -1678.33429        53.70029
G07  23327812.84627     -2702.42427        42.00027
G13  20853910.79327      -665.50927        47.20027
G14  20561784.02827      -809.62427        45.40027
G15  22338452.16627       276.59427        46.50027
G17  20444037.24327       786.49427        42.70027
G19  21321653.88127      2538.27727        47.40027
G22  20754824.88928      -378.68228        47.50028
G30  21327982.20026     -1913.49526        40.70026
R06  21498537.42726     -1119.87426        37.20026
R18  21057063.35326      3317.90026        37.20026
R16  20335773.79228      1118.55428        47.70028
R15  20941149.79928     -1503.29628        52.90028
R05  22981681.76828     -4170.51428        51.70028
R17  20723571.22529       -81.65529        54.80029
R07  22896192.05128      2120.35428        49.60028
E07  24073200.02526     -1060.42226        37.70026
E08  26228261.70725     -2981.46825        34.70025
E27  25431191.80728      1495.84728        48.60028
E29  25987359.58027      1679.61027        43.90027
E30  23654862.43427      -385.83827        46.80027
E34  27055301.85927      2409.52027        45.30027
E36  27431328.24228       557.24328        51.90028
> 2025 11 28 23 17 59.4429877  0 24                      
G01  23711168.85428       593.20028        49.50028
G02  24895781.36429     -1716.95029        54.30029
G07  23328323.39326     -2742.20026        38.80026
G13  20854039.70428      -703.25028        47.50028
G14  20561941.41927      -847.15027        45.10027
G15  22338404.79927       237.85027        45.90027
G17  20443899.93827       748.20027        42.90027
G19  21321173.31428      2500.15028        48.00028
G22  20754903.73427      -415.65027        47.30027
G30  21328352.74426     -1950.75026        39.20026
R06  21498758.37426     -1158.50026        37.40026
R18  21056446.68026      3278.85026        39.70026
R16  20335561.83828      1080.75028        48.70028
R15  20941432.20328     -1541.45028        53.30028
R05  22982465.72528     -4209.70028        51.60028
R17  20723599.10628      -120.45028        53.00028
R07  22895793.32728      2081.00028        48.50028
E07  24073403.88426     -1098.75026        36.70026
E08  26228833.71124     -3021.95024        29.00024
E27  25430912.10128      1456.95028        48.50028
E29  25987045.39827      1640.70027        43.90027
E30  23654939.48127      -423.85027        47.20027
E34  27054849.47227      2370.30027        45.70027
E36  27431229.91028       518.60028        51.90028
> 2025 11 28 23 18 00.4429877  0 24                      
G01  23711060.92928       557.95028        51.10028
G02  24896111.73528     -1751.75028        53.40028
G07  23328845.63127     -2776.45027        42.50027
G13  20854177.90828      -739.05028        47.90028
G14  20562107.20427      -882.30027        45.40027
G15  22338363.42827       201.40027        47.00027
G17  20443761.13427       712.95027        42.90027
G19  21320704.13927      2465.90027        45.40027
G22  20754986.47728      -451.05028        47.90028
G30  21328723.88726     -1985.55026        40.70026
R06  21498986.21726     -1193.20026        37.60026
R18  21055821.01325      3241.40025        34.40025
R16  20335362.77628      1044.90028        48.00028
R15  20941719.40428     -1576.90028        52.60028
R05  22983262.87328     -4245.00028        50.30028
R17  20723619.49229      -156.90029        55.20029
R07  22895416.78828      2043.50028        51.30028
E07  24073618.53626     -1134.90526        39.20026
E08  26229412.31126     -3054.47826        37.10026
E27  25430639.88928      1421.70028        48.60028
E29  25986736.01227      1604.75027        44.80027
E30  23655027.02128      -459.70028        47.50028
E34  27054400.38327      2335.50027        45.10027
E36  27431132.77728       483.05028        51.90028
> 2025 11 28 23 18 01.4429877  0 24                      
G01  23710952.10428       566.50028        51.00028
G02  24896444.80528     -1743.45028        53.40028
G07  23329375.66427     -2767.05027        41.70027
G13  20854319.11028      -730.40028        47.50028
G14  20562279.28527      -873.90027        45.50027
G15  22338322.65627       211.45027        45.70027
G17  20443624.72827       721.90027        42.90027
G19  21320236.46227      2473.20027        46.00027
G22  20755075.21528      -442.05028        47.60028
G30  21329101.32526     -1978.20026        40.80026
R06  21499223.05326     -1185.55026        38.60026
R18  21055258.00326      3250.30026        35.60026
R16  20335167.01228      1053.65028        48.10028
R15  20942014.70028     -1568.10028        53.20028
R05  22984048.62928     -4236.15028        50.30028
R17  20723649.17129      -148.60029        55.10029
R07  22895030.95528      2053.70028        49.90028
E07  24073831.38826     -1127.05126        38.20026
E08  26229987.61226     -3045.82226        37.40026
E27  25430366.47928      1431.00628        48.20028
E29  25986430.22427      1614.09727        44.20027
E30  23655110.96228      -450.57628        47.50028
E34  27053956.39127      2344.08627        45.70027
E36  27431041.34028       491.43628        51.90028
> 2025 11 28 23 18 02.4429876  0 24                      
G01  23710845.37828       578.80028        51.00028
G02  24896775.17628     -1731.25028        53.40028
G07  23329900.90127     -2755.35027        42.50027
G13  20854452.51827      -718.95027        47.30027
G14  20562441.17327      -861.35027        45.80027
G15  22338281.28527       222.50027        45.00027
G17  20443486.52427       733.75027        43.40027
G19  21319763.09027      2485.40027        46.30027
G22  20755154.66028      -429.75028        47.70028
G30  21329481.46226     -1965.50026        41.20026
R06  21499429.90926     -1174.80026        38.70026
R18  21054626.64026      3264.65026        36.20026
R16  20334973.64628      1066.25028        48.20028
R15  20942303.40028     -1556.05028        53.30028
R05  22984842.48028     -4223.15028        50.30028
R17  20723676.15329      -136.85029        55.20029
R07  22894646.92128      2065.40028        48.60028
E07  24074047.53926     -1113.99326        38.90026
E08  26230564.71326     -3032.93126        37.10026
E27  25430093.06828      1443.48128        48.50028
E29  25986122.03727      1626.30327        43.50027
E30  23655197.60228      -438.16628        47.50028
E34  27053510.00027      2356.62127        45.60027
E36  27430944.50728       503.56928        52.20028
> 2025 11 28 23 18 03.4429876  0 24                      
G01  23710732.65628       600.55028        51.20028
G02  24897101.95028     -1709.89428        52.90028
G07  23330420.14127     -2733.30027        41.80027
G13  20854587.12527      -697.87827        47.20027
G14  20562600.66327      -840.60027        45.10027
G15  22338242.91127       243.54127        46.20027
G17  20443351.31727       754.51127        43.60027
G19  21319286.12027      2506.80927        44.20027
G22  20755235.00528      -409.50028        47.90028
G30  21329854.70426     -1944.30026        40.30026
R06  21499654.45426     -1152.95026        37.80026
R18  21054006.66924      3286.30024        28.70024
R16  20334769.48728      1087.00028        48.00028
R15  20942595.39828     -1533.59128        52.80028
R05  22985633.93228     -4201.40028        50.30028
R17  20723698.63729      -116.25029        55.20029
R07  22894256.89128      2087.75028        50.90028
E07  24074257.09426     -1092.69526        39.80026
E08  26231140.31426     -3011.77526        37.30026
E27  25429816.35928      1464.88228        48.50028
E29  25985806.65527      1647.38527        45.60027
E30  23655276.74827      -416.72727        47.10027
E34  27053055.81427      2378.20427        44.80027
E36  27430847.07528       524.66128        51.50028
> 2025 11 28 23 18 04.4429877  0 24                      
G01  23710614.83828       617.21128        50.90028
G02  24897426.62529     -1693.16329        53.80029
G07  23330940.88127     -2715.99327        43.00027
G13  20854716.93527      -681.18427        42.50027
G14  20562758.95327      -822.73227        44.40027
G15  22338192.84628       260.64028        47.50028
G17  20443205.01927       771.04227        43.70027
G19  21318810.64927      2523.35927        45.90027
G22  20755307.25527      -391.87627        46.90027
G30  21330208.75926     -1926.59626        36.20026
R06  21499869.40526     -1136.55026        37.30026
R18  21053389.99626      3299.30026        38.20026
R16  20334575.82127      1105.55627        47.10027
R15  20942882.29928     -1516.40928        52.20028
R05  22986417.58928     -4183.14928        50.20028
R17  20723716.92429       -99.08429        54.80029
R07  22893863.56328      2103.90328        49.40028
E07  24074462.15227     -1077.10827        42.50027
E08  26231720.41325     -2993.35025        34.70025
E27  25429535.75428      1483.27928        49.60028
E29  25985496.37027      1663.32827        44.30027
E30  23655354.69428      -398.47028        47.60028
E34  27052601.02927      2394.44327        45.40027
E36  27430742.44728       540.55628        52.10028
> 2025 11 28 23 18 05.4429877  0 24                      
G01  23710503.61528       579.15028        50.80028
G02  24897750.70129     -1731.75029        53.60029
G07  23331464.01927     -2753.60027        44.20027
G13  20854850.94227      -720.10027        44.60027
G14  20562920.54127      -861.30027        45.10027
G15  22338147.27728       222.55028        47.60028
G17  20443064.71627       733.40027        44.10027
G19  21318328.58327      2486.35027        46.60027
G22  20755385.50128      -429.15028        47.50028
G30  21330580.80126     -1964.65026        39.20026
R06  21500087.05426     -1174.35026        38.20026
R18  21052774.52226      3263.30026        37.30026
R16  20334364.46728      1067.75028        48.00028
R15  20943165.30328     -1554.05028        53.30028
R05  22987200.04828     -4222.65028        50.10028
R17  20723746.00429      -137.70029        54.80029
R07  22893475.03228      2064.80028        50.10028
E07  24074673.20627     -1113.20427        42.20027
E08  26232291.51725     -3030.40025        35.20025
E27  25429259.04528      1445.75028        49.40028
E29  25985182.48727      1627.27427        45.10027
E30  23655436.83727      -436.75027        47.40027
E34  27052150.14127      2358.47327        44.30027
E36  27430645.91428       504.48028        51.60028
> 2025 11 28 23 18 06.4429877  0 24                      
G01  23710395.39028       554.83028        51.20028
G02  24898083.77029     -1755.27529        53.60029
G07  23331993.75227     -2777.88527        42.90027
G13  20854991.24527      -742.90027        44.60027
G14  20563088.12527      -883.90027        44.90027
G15  22338105.00727       197.81327        47.30027
G17  20442918.11727       709.49927        43.10027
G19  21317860.90727      2462.33727        46.30027
G22  20755470.04227      -453.79627        47.10027
G30  21330957.64026     -1987.80026        38.30026
R06  21500321.79226     -1200.20026        38.80026
R18  21052167.44326      3239.35026        40.90026
R16  20334172.30028      1042.65428        47.70028
R15  20943470.19228     -1579.28128        53.40028
R05  22987994.79728     -4245.68628        50.20028
R17  20723769.68829      -163.43129        55.10029
R07  22893088.30028      2039.89828        51.30028
E07  24074890.25526     -1137.27526        41.00026
E08  26232867.71926     -3055.45026        37.60026
E27  25428989.83228      1421.27128        49.30028
E29  25984875.20027      1603.14127        43.50027
E30  23655520.47928      -460.34028        47.60028
E34  27051706.44827      2334.40427        46.40027
E36  27430555.37728       480.26128        51.80028
> 2025 11 28 23 18 07.4429877  0 24                      
G01  23710289.26328       558.24628        50.90028
G02  24898417.73929     -1751.71529        53.50029
G07  23332513.59227     -2774.21427        42.30027
G13  20855128.55027      -739.55527        44.40027
G14  20563254.21027      -878.90027        45.00027
G15  22338066.63327       201.68727        46.60027
G17  20442785.30927       712.98027        42.20027
G19  21317392.63127      2466.00227        45.90027
G22  20755555.48327      -447.80027        46.90027
G30  21331330.58226     -1980.84426        35.80026
R06  21500531.04726     -1195.60026        38.70026
R18  21051555.26726      3242.79726        40.90026
R16  20333966.04327      1048.95027        47.00027
R15  20943763.68928     -1572.90028        53.20028
R05  22988791.64628     -4241.04928        50.90028
R17  20723796.96929      -157.85029        54.90029
R07  22892706.66428      2043.86928        50.90028
E07  24075105.50626     -1132.62026        41.10026
E08  26233446.31826     -3050.12226        39.60026
E27  25428713.42328      1426.36628        49.20028
E29  25984572.11027      1608.04327        43.80027
E30  23655608.31827      -455.20427        47.30027
E34  27051261.25727      2339.38027        46.90027
E36  27430460.64228       484.96928        52.10028
> 2025 11 28 23 18 08.4429877  0 24                      
G01  23710182.53728       573.10028        50.70028
G02  24898749.90929     -1737.00029        54.00029
G07  23333045.12427     -2759.55027        42.00027
G13  20855276.94727      -725.85027        45.00027
G14  20563417.29727      -865.35027        44.80027
G15  22338024.06327       215.85027        46.40027
G17  20442637.21227       727.65027        42.10027
G19  21316917.76027      2480.65027        46.30027
G22  20755639.72527      -434.45027        47.00027
G30  21331701.12626     -1970.99626        36.30026
R06  21500739.70326     -1181.95026        39.10026
R18  21050928.70026      3257.05026        40.70026
R16  20333768.18027      1062.50027        47.00027
R15  20944050.89028     -1559.20028        53.10028
R05  22989578.60128     -4225.95028        50.50028
R17  20723833.84329      -144.95029        55.10029
R07  22892324.72828      2057.90028        50.70028
E07  24075319.85826     -1119.27026        41.20026
E08  26234025.51726     -3036.56626        39.40026
E27  25428442.11128      1440.00328        49.30028
E29  25984260.62627      1621.43527        44.00027
E30  23655694.05928      -441.59828        47.50028
E34  27050813.96627      2353.05527        46.90027
E36  27430367.70728       498.29428        52.20028
> 2025 11 28 23 18 09.4429877  0 24                      
G01  23710072.21428       593.31928        50.60028
G02  24899078.78129     -1716.54229        53.70029
G07  23333563.16527     -2738.68427        41.60027
G13  20855412.45327      -705.43827        45.60027
G14  20563582.78327      -844.80527        44.50027
G15  22337984.79027       235.75327        45.90027
G17  20442508.30127       747.10027        41.60027
G19  21316447.68527      2500.64427        46.10027
G22  20755721.56827      -413.91127        46.60027
G30  21332086.35926     -1950.05026        36.00026
R06  21500973.24126     -1161.63826        38.70026
R18  21050313.82626      3276.90026        39.80026
R16  20333567.61927      1083.36827        47.10027
R15  20944338.69128     -1538.56728        52.70028
R05  22990371.55228     -4205.17528        50.40028
R17  20723858.12729      -124.80929        55.00029
R07  22891938.89528      2078.45428        50.30028
E07  24075530.31226     -1099.14126        40.80026
E08  26234603.51726     -3016.22426        39.70026
E27  25428164.20328      1460.35828        49.20028
E29  25983950.04127      1641.51127        43.60027
E30  23655773.50428      -421.32028        47.90028
E34  27050363.67827      2373.46627        46.80027
E36  27430268.17528       518.30328        52.10028
> 2025 11 28 23 18 10.4429877  0 24                      
G01  23709956.79328       610.70628        50.70028
G02  24899403.15729     -1699.26429        53.70029
G07  23334087.20326     -2720.97926        40.70026
G13  20855550.95827      -688.27627        45.80027
G14  20563740.17427      -827.18127        44.70027
G15  22337933.82527       253.26027        45.30027
G17  20442360.80326       764.44226        41.30026
G19  21315967.11827      2517.95127        46.00027
G22  20755801.61327      -396.30927        46.80027
G30  21332445.81026     -1932.83426        35.70026
R06  21501193.88826     -1144.46926        38.60026
R18  21049703.74826      3295.24826        40.00026
R16  20333366.15927      1101.37227        47.10027
R15  20944622.29528     -1520.63828        53.10028
R05  22991156.70828     -4186.98828        50.70028
R17  20723874.61529      -107.59329        55.20029
R07  22891551.86328      2096.11128        50.40028
E07  24075738.96826     -1082.76126        40.10026
E08  26235173.12326     -2999.52526        39.70026
E27  25427887.49528      1477.09728        48.80028
E29  25983638.85627      1657.99127        43.30027
E30  23655855.04727      -404.63427        47.40027
E34  27049910.69127      2389.76627        46.80027
E36  27430170.74328       534.83728        52.10028
> 2025 11 28 23 18 11.4429877  0 24                      
G01  23709845.57028       575.95028        50.80028
G02  24899726.33329     -1733.95029        53.50029
G07  23334601.94626     -2756.25026        41.40026
G13  20855681.66727      -722.65027        46.10027
G14  20563907.15827      -861.95027        45.20027
G15  22337885.85827       217.65027        44.20027
G17  20442215.70426       730.75026        40.90026
G19  21315489.84827      2483.90027        46.40027
G22  20755877.46027      -429.20027        46.70027
G30  21332812.75626     -1968.35026        36.60026
R06  21501417.23426     -1178.50026        38.90026
R18  21049087.07526      3260.25026        39.80026
R16  20333170.09427      1067.10027        47.20027
R15  20944917.29028     -1554.80028        53.20028
R05  22991943.66428     -4222.10028        50.40028
R17  20723897.10029      -142.20029        55.00029
R07  22891165.13128      2061.45028        50.60028
E07  24075945.52526     -1115.27526        39.30026
E08  26235746.32626     -3031.74326        39.30026
E27  25427609.58728      1444.85128        49.10028
E29  25983326.77227      1625.47327        42.50027
E30  23655933.89328      -436.86428        47.80028
E34  27049460.40327      2357.95527        46.90027
E36  27430070.91228       502.28628        52.00028
> 2025 11 28 23 18 12.4429877  0 24                      
G01  23709740.64328       546.65028        50.40028
G02  24900060.00229     -1762.70029        53.60029
G07  23335132.27926     -2782.85026        40.40026
G13  20855819.87127      -751.15027        46.90027
G14  20564071.44527      -890.05027        44.90027
G15  22337843.28827       190.05027        45.40027
G17  20442076.00027       701.60027        42.50027
G19  21315025.77027      2455.75027        47.00027
G22  20755958.40427      -458.40027        46.60027
G30  21333217.17626     -1997.85026        38.50026
R06  21501629.48726     -1208.25026        38.50026
R18  21048487.49025      3236.30025        34.90025
R16  20332962.63828      1038.05028        47.90028
R15  20945210.48829     -1584.00029        53.50029
R05  22992738.11428     -4250.45028        51.30028
R17  20723925.28029      -171.95029        54.80029
R07  22890782.59628      2031.70028        50.00028
E07  24076162.27526     -1144.33626        40.50026
E08  26236323.42625     -3058.60025        34.80025
E27  25427339.47428      1416.16728        49.50028
E29  25983017.68627      1596.58727        45.00027
E30  23656020.23328      -465.46128        47.50028
E34  27049016.71027      2329.04927        45.80027
E36  27429981.87428       473.24328        51.80028
> 2025 11 28 23 18 13.4429877  0 24                      
G01  23709632.41828       557.95028        50.60028
G02  24900395.77029     -1750.95029        53.80029
G07  23335657.81526     -2773.20026        40.20026
G13  20855961.37327      -740.80027        46.90027
G14  20564243.22627      -878.70027        46.00027
G15  22337807.31327       199.70027        45.60027
G17  20441935.69727       711.70027        42.50027
G19  21314551.79827      2466.15027        42.40027
G22  20756042.04627      -448.35027        46.20027
G30  21333587.42027     -1984.45027        41.90027
R06  21501855.83026     -1198.00026        38.30026
R18  21047878.01226      3240.84526        40.60026
R16  20332770.17128      1049.45028        47.80028
R15  20945504.28428     -1572.65028        53.00028
R05  22993529.86628     -4238.80028        49.80028
R17  20723960.35629      -161.65029        55.10029
R07  22890410.25428      2042.35028        49.60028
E07  24076376.32726     -1133.71926        40.10026
E08  26236907.72226     -3050.46526        37.30026
E27  25427066.36328      1427.13428        49.70028
E29  25982711.59827      1607.41427        44.20027
E30  23656106.57327      -454.46127        47.20027
E34  27048570.61927      2339.93527        46.30027
E36  27429888.33828       483.86528        51.80028
> 2025 11 28 23 18 14.4429877  0 23                      
G01  23709525.39228       574.05028        50.10028
G02  24900726.44129     -1735.15029        54.20029
G13  20856100.77727      -724.25027        46.50027
G14  20564413.50827      -861.70027        46.00027
G15  22337761.44527       217.35027        45.70027
G17  20441798.39227       727.25027        41.90027
G19  21314082.92226      2482.35026        39.90026
G22  20756122.99027      -430.55027        46.20027
G30  21333971.15427     -1968.95027        41.70027
R06  21502088.46926     -1181.55026        39.10026
R18  21047251.44626      3259.90026        36.90026
R16  20332574.70628      1066.10028        48.10028
R15  20945799.28028     -1556.00028        53.40028
R05  22994318.61927     -4222.60027        46.70027
R17  20723984.33929      -145.75029        55.30029
R07  22890023.82128      2058.25028        49.90028
E07  24076590.67826     -1117.29926        39.50026
E08  26237490.81825     -3030.75025        33.90025
E27  25426792.05328      1443.77428        49.10028
E29  25982403.41127      1623.77127        44.40027
E30  23656191.41428      -437.93728        47.50028
E34  27048127.52627      2356.59427        46.80027
E36  27429794.80328       500.22728        52.40028
> 2025 11 28 23 18 15.4429877  0 24                      
G01  23709417.76728       595.80928        49.30028
G02  24901054.41428     -1713.67528        53.00028
G07  23336698.99427     -2715.30027        41.90027
G13  20856237.78227      -704.55027        46.60027
G14  20564575.69527      -840.42227        44.10027
G15  22337718.87427       237.45827        44.70027
G17  20441661.68727       749.36127        42.80027
G19  21313612.24827      2503.95027        44.20027
G22  20756201.53627      -408.90027        45.60027
G30  21334340.19927     -1947.02427        43.30027
R06  21502303.12026     -1159.55026        38.40026
R18  21046658.45726      3279.20026        39.60026
R16  20332363.35327      1088.65027        47.40027
R15  20946087.68028     -1533.78028        53.20028
R05  22995113.96927     -4199.76027        47.10027
R17  20724014.61829      -124.85029        55.00029
R07  22889640.08728      2079.91728        48.90028
E07  24076794.53726     -1096.14626        37.60026
E08  26238064.02126     -3011.12026        35.60026
E27  25426518.94228      1465.27228        50.10028
E29  25982089.82827      1645.04027        44.60027
E30  23656271.75927      -416.34827        47.20027
E34  27047673.34028      2378.28028        48.10028
E36  27429700.06928       521.41428        52.70028
> 2025 11 28 23 18 16.4429877  0 24                      
G01  23709301.74728       613.66628        50.50028
G02  24901380.58829     -1695.97229        53.70029
G07  23337224.23126     -2717.13126        41.40026
G13  20856365.49427      -686.12127        46.50027
G14  20564730.98827      -822.38427        47.10027
G15  22337673.60527       254.77627        46.00027
G17  20441520.78527       767.02727        42.90027
G19  21313133.48026      2521.44626        39.00026
G22  20756275.58427      -391.51527        46.30027
G30  21334707.44427     -1929.40527        43.80027
R06  21502504.28126     -1143.07326        38.60026
R18  21046035.48826      3294.90026        35.80026
R16  20332154.09827      1106.52427        46.10027
R15  20946377.58028     -1515.49528        53.10028
R05  22995890.13228     -4181.69928        47.50028
R17  20724035.60429      -106.68129        55.30029
R07  22889249.75728      2098.09528        48.10028
E07  24077004.99126     -1079.19426        38.90026
E08  26238647.41725     -2993.75025        31.70025
E27  25426233.24028      1482.42828        49.50028
E29  25981775.64627      1661.86027        46.00027
E30  23656352.40327      -399.33227        47.30027
E34  27047220.05427      2395.45127        46.50027
E36  27429596.04128       538.27628        51.20028
> 2025 11 28 23 18 17.4429877  0 24                      
G01  23709185.72728       584.40028        52.30028
G02  24901704.66428     -1724.85028        52.70028
G07  23337749.76726     -2745.05026        36.80026
G13  20856501.00027      -714.60027        47.20027
G14  20564889.27827      -849.70027        45.90027
G15  22337628.63627       225.10027        45.20027
G17  20441382.58027       738.05027        43.20027
G19  21312661.60626      2491.80026        40.10026
